# 
# Header Description:
# 
# Version: 2.0.0.0 Platform: 11 Manufacturer: Xiaomi Model: 2107113SG
# 
# Raw,ElapsedRealtimeMillis,TimeNanos,LeapSecond,TimeUncertaintyNanos,FullBiasNanos,BiasNanos,BiasUncertaintyNanos,DriftNanosPerSecond,DriftUncertaintyNanosPerSecond,HardwareClockDiscontinuityCount,Svid,TimeOffsetNanos,State,ReceivedSvTimeNanos,ReceivedSvTimeUncertaintyNanos,Cn0DbHz,PseudorangeRateMetersPerSecond,PseudorangeRateUncertaintyMetersPerSecond,AccumulatedDeltaRangeState,AccumulatedDeltaRangeMeters,AccumulatedDeltaRangeUncertaintyMeters,CarrierFrequencyHz,CarrierCycles,CarrierPhase,CarrierPhaseUncertainty,MultipathIndicator,SnrInDb,ConstellationType,AgcDb
# 
# Fix,Provider,Latitude,Longitude,Altitude,Speed,Accuracy,(UTC)TimeInMs
# 
# Nav,Svid,Type,Status,MessageId,Sub-messageId,Data(Bytes)
# 
Fix,gps,47.423534,8.566624,469.318054,0.000000,3.790092,1651226632000
Raw,134777934,56277764000000,18,,-1335205571664645128,0.5545406341552734,39.56090586143546,-3.4440656815692847,9.92997247684167,62,2,0.0,16399,468249350858085,35,25.8,359.40765380859375,0.7985000014305115,16,0.0,0.0,1.57542003E9,,,,0,,1,4.81
Raw,134777934,56277764000000,18,,-1335205571664645128,0.5545406341552734,39.56090586143546,-3.4440656815692847,9.92997247684167,62,18,0.0,16399,468249347360825,70,20.9,-723.9627685546875,1.8669999837875366,16,0.0,0.0,1.57542003E9,,,,0,,1,4.81
Raw,134777934,56277764000000,18,,-1335205571664645128,0.5545406341552734,39.56090586143546,-3.4440656815692847,9.92997247684167,62,22,0.0,16399,468249350904639,14,33.9,363.18060302734375,0.037995655089616776,16,0.0,0.0,1.57542003E9,,,,0,,1,4.81
Raw,134777934,56277764000000,18,,-1335205571664645128,0.5545406341552734,39.56090586143546,-3.4440656815692847,9.92997247684167,62,25,0.0,16399,468249361137522,61,22.3,219.34201049804688,1.0220000743865967,16,0.0,0.0,1.57542003E9,,,,0,,1,4.81
Raw,134777934,56277764000000,18,,-1335205571664645128,0.5545406341552734,39.56090586143546,-3.4440656815692847,9.92997247684167,62,26,0.0,16399,468249348648406,80,20.1,-609.1395874023438,1.868499994277954,16,0.0,0.0,1.57542003E9,,,,0,,1,4.81
Raw,134777934,56277764000000,18,,-1335205571664645128,0.5545406341552734,39.56090586143546,-3.4440656815692847,9.92997247684167,62,29,0.0,16399,468249360434802,16,32.9,-160.77976989746094,0.6287862658500671,16,0.0,0.0,1.57542003E9,,,,0,,1,4.81
Raw,134777934,56277764000000,18,,-1335205571664645128,0.5545406341552734,39.56090586143546,-3.4440656815692847,9.92997247684167,62,31,0.0,16399,468249357304333,10,37.8,-277.1998291015625,0.023899104446172714,16,0.0,0.0,1.57542003E9,,,,0,,1,4.81
Raw,134777934,56277764000000,18,,-1335205571664645128,0.5545406341552734,39.56090586143546,-3.4440656815692847,9.92997247684167,62,32,0.0,16399,468249347772243,16,32.9,556.9150390625,0.04740523174405098,16,0.0,0.0,1.57542003E9,,,,0,,1,4.81
Raw,134777934,56277764000000,18,,-1335205571664645128,0.5545406341552734,39.56090586143546,-3.4440656815692847,9.92997247684167,62,10,0.0,49359,47031364108445,19,31.9,-184.09933471679688,0.062844417989254,16,0.0,0.0,1.59806246E9,,,,0,,3,5.14
Raw,134777934,56277764000000,18,,-1335205571664645128,0.5545406341552734,39.56090586143546,-3.4440656815692847,9.92997247684167,62,21,0.0,49359,47031349366317,35,26.1,-846.4733276367188,0.7400000095367432,16,0.0,0.0,1.60424998E9,,,,0,,3,5.14
Raw,134777934,56277764000000,18,,-1335205571664645128,0.5545406341552734,39.56090586143546,-3.4440656815692847,9.92997247684167,62,43,0.0,16399,468235353391825,19,32.0,255.7621612548828,0.04994453489780426,16,0.0,0.0,1.56109798E9,,,,0,,5,4.95
Raw,134777935,56277764000000,18,,-1335205571664645128,0.5545406341552734,39.56090586143546,-3.4440656815692847,9.92997247684167,62,38,0.0,16399,468235297957731,61,22.4,1.0754210948944092,0.9980000257492065,16,0.0,0.0,1.56109798E9,,,,0,,5,4.95
Raw,134777935,56277764000000,18,,-1335205571664645128,0.5545406341552734,39.56090586143546,-3.4440656815692847,9.92997247684167,62,37,0.0,16399,468235354415577,11,37.4,-216.3014678955078,0.02925978973507881,16,0.0,0.0,1.56109798E9,,,,0,,5,4.95
Raw,134777935,56277764000000,18,,-1335205571664645128,0.5545406341552734,39.56090586143546,-3.4440656815692847,9.92997247684167,62,34,0.0,16399,468235341822448,46,24.4,606.6431274414062,0.871999979019165,16,0.0,0.0,1.56109798E9,,,,0,,5,4.95
Raw,134777935,56277764000000,18,,-1335205571664645128,0.5545406341552734,39.56090586143546,-3.4440656815692847,9.92997247684167,62,28,0.0,16399,468235353913156,40,26.2,-392.06781005859375,0.7339999675750732,16,0.0,0.0,1.56109798E9,,,,0,,5,4.95
Raw,134777935,56277764000000,18,,-1335205571664645128,0.5545406341552734,39.56090586143546,-3.4440656815692847,9.92997247684167,62,23,0.0,16399,468235352979714,70,21.3,361.7255859375,1.7844998836517334,16,0.0,0.0,1.56109798E9,,,,0,,5,4.95
Raw,134777935,56277764000000,18,,-1335205571664645128,0.5545406341552734,39.56090586143546,-3.4440656815692847,9.92997247684167,62,13,0.0,16399,468235300591246,61,22.9,-179.06723022460938,1.0234999656677246,16,0.0,0.0,1.56109798E9,,,,0,,5,4.95
Raw,134777935,56277764000000,18,,-1335205571664645128,0.5545406341552734,39.56090586143546,-3.4440656815692847,9.92997247684167,62,11,0.0,16399,468235348886350,80,20.4,495.0970153808594,1.868499994277954,16,0.0,0.0,1.56109798E9,,,,0,,5,4.95
Raw,134777935,56277764000000,18,,-1335205571664645128,0.5545406341552734,39.56090586143546,-3.4440656815692847,9.92997247684167,62,4,0.0,23567,468249333185755,46,24.7,538.2614135742188,0.6421242952346802,16,0.0,0.0,1.57542003E9,,,,0,,6,4.78
Raw,134777935,56277764000000,18,,-1335205571664645128,0.5545406341552734,39.56090586143546,-3.4440656815692847,9.92997247684167,62,9,0.0,23567,468249337817560,31,28.2,342.71063232421875,1.7528493404388428,16,0.0,0.0,1.57542003E9,,,,0,,6,4.78
Raw,134777935,56277764000000,18,,-1335205571664645128,0.5545406341552734,39.56090586143546,-3.4440656815692847,9.92997247684167,62,26,0.0,23567,468249347019012,106,18.8,-108.0772933959961,2.180000066757202,16,0.0,0.0,1.57542003E9,,,,0,,6,4.78
Raw,134777935,56277764000000,18,,-1335205571664645128,0.5545406341552734,39.56090586143546,-3.4440656815692847,9.92997247684167,62,31,0.0,23567,468249346836734,13,35.4,-314.7622985839844,0.03689195215702057,16,0.0,0.0,1.57542003E9,,,,0,,6,4.78
Raw,134777935,56277764000000,18,,-1335205571664645128,0.5545406341552734,39.56090586143546,-3.4440656815692847,9.92997247684167,62,18,0.0,81935,468249347368663,14,22.6,-724.3104858398438,1.0220000743865967,16,0.0,0.0,1.17645005E9,,,,0,,1,4.0
Raw,134777935,56277764000000,18,,-1335205571664645128,0.5545406341552734,39.56090586143546,-3.4440656815692847,9.92997247684167,62,25,0.0,81935,468249361145402,4,34.3,218.71986389160156,0.04747423157095909,16,0.0,0.0,1.17645005E9,,,,0,,1,4.0
Raw,134777935,56277764000000,18,,-1335205571664645128,0.5545406341552734,39.56090586143546,-3.4440656815692847,9.92997247684167,62,32,0.0,81935,468249347780071,6,30.3,556.89208984375,0.08002035319805145,16,0.0,0.0,1.17645005E9,,,,0,,1,4.0
Raw,134777935,56277764000000,18,,-1335205571664645128,0.5545406341552734,39.56090586143546,-3.4440656815692847,9.92997247684167,62,4,0.0,81935,468249333192133,12,23.9,538.45166015625,0.9509999752044678,16,0.0,0.0,1.17645005E9,,,,0,,6,4.0
Raw,134777935,56277764000000,18,,-1335205571664645128,0.5545406341552734,39.56090586143546,-3.4440656815692847,9.92997247684167,62,21,0.0,81935,468249338222280,10,25.5,453.3523864746094,0.882231593132019,16,0.0,0.0,1.17645005E9,,,,0,,6,4.0
Raw,134777935,56277764000000,18,,-1335205571664645128,0.5545406341552734,39.56090586143546,-3.4440656815692847,9.92997247684167,62,26,0.0,81935,468249347025421,5,34.0,-107.97840881347656,0.05861479043960571,16,0.0,0.0,1.17645005E9,,,,0,,6,4.0
Raw,134777935,56277764000000,18,,-1335205571664645128,0.5545406341552734,39.56090586143546,-3.4440656815692847,9.92997247684167,62,31,0.0,81935,468249346843101,6,32.2,-314.7195739746094,0.06608473509550095,16,0.0,0.0,1.17645005E9,,,,0,,6,4.0
Raw,134777935,56277764000000,18,,-1335205571664645128,0.5545406341552734,39.56090586143546,-3.4440656815692847,9.92997247684167,62,23,0.0,16399,468235352986075,6,30.2,361.3039245605469,0.11752034723758698,16,0.0,0.0,1.17645005E9,,,,0,,5,4.0
Raw,134777935,56277764000000,18,,-1335205571664645128,0.5545406341552734,39.56090586143546,-3.4440656815692847,9.92997247684167,62,28,0.0,16399,468235353919451,12,23.1,-391.4158630371094,0.9809999465942383,16,0.0,0.0,1.17645005E9,,,,0,,5,4.0
Raw,134777935,56277764000000,18,,-1335205571664645128,0.5545406341552734,39.56090586143546,-3.4440656815692847,9.92997247684167,62,37,0.0,16399,468235354421839,5,32.1,-216.30577087402344,0.10204531252384186,16,0.0,0.0,1.17645005E9,,,,0,,5,4.0
Raw,134777935,56277764000000,18,,-1335205571664645128,0.5545406341552734,39.56090586143546,-3.4440656815692847,9.92997247684167,62,38,0.0,16399,468235297963983,10,24.6,1.6159579753875732,0.8807315826416016,16,0.0,0.0,1.17645005E9,,,,0,,5,4.0
Raw,134777936,56277764000000,18,,-1335205571664645128,0.5545406341552734,39.56090586143546,-3.4440656815692847,9.92997247684167,62,43,0.0,16399,468235353398104,4,33.9,255.72613525390625,0.06547423452138901,16,0.0,0.0,1.17645005E9,,,,0,,5,4.0
Raw,134777936,56277764000000,18,,-1335205571664645128,0.5545406341552734,39.56090586143546,-3.4440656815692847,9.92997247684167,62,2,0.0,16399,468249300006315,53,23.5,119.8328857421875,0.9434999823570251,16,0.0,0.0,1.17645005E9,,,,0,,7,3.56
Raw,134777936,56277764000000,18,,-1335205571664645128,0.5545406341552734,39.56090586143546,-3.4440656815692847,9.92997247684167,62,6,0.0,16399,468249300186751,53,24.1,10.741002082824707,0.8734999895095825,16,0.0,0.0,1.17645005E9,,,,0,,7,3.56
Raw,134777936,56277764000000,18,,-1335205571664645128,0.5545406341552734,39.56090586143546,-3.4440656815692847,9.92997247684167,62,23,0.0,16399,468235352979703,14,24.1,361.3486633300781,1.1394999027252197,16,0.0,0.0,1.57542003E9,,,,0,,5,4.78
Raw,134777936,56277764000000,18,,-1335205571664645128,0.5545406341552734,39.56090586143546,-3.4440656815692847,9.92997247684167,62,27,0.0,16399,468235341538951,14,24.0,-660.7852172851562,1.1379998922348022,16,0.0,0.0,1.57542003E9,,,,0,,5,4.78
Raw,134777936,56277764000000,18,,-1335205571664645128,0.5545406341552734,39.56090586143546,-3.4440656815692847,9.92997247684167,62,28,0.0,16399,468235353913095,11,26.9,-391.5389404296875,2.4641048908233643,16,0.0,0.0,1.57542003E9,,,,0,,5,4.78
Raw,134777936,56277764000000,18,,-1335205571664645128,0.5545406341552734,39.56090586143546,-3.4440656815692847,9.92997247684167,62,34,0.0,16399,468235341822389,18,22.7,606.998779296875,1.9479999542236328,16,0.0,0.0,1.57542003E9,,,,0,,5,4.78
Raw,134777936,56277764000000,18,,-1335205571664645128,0.5545406341552734,39.56090586143546,-3.4440656815692847,9.92997247684167,62,37,0.0,16399,468235354415474,3,40.8,-216.2984161376953,0.08919834345579147,16,0.0,0.0,1.57542003E9,,,,0,,5,4.78
Raw,134777936,56277764000000,18,,-1335205571664645128,0.5545406341552734,39.56090586143546,-3.4440656815692847,9.92997247684167,62,38,0.0,16399,468235297957581,10,27.1,1.5887298583984375,1.2730053663253784,16,0.0,0.0,1.57542003E9,,,,0,,5,4.78
Raw,134777936,56277764000000,18,,-1335205571664645128,0.5545406341552734,39.56090586143546,-3.4440656815692847,9.92997247684167,62,43,0.0,16399,468235353391723,7,31.9,255.69302368164062,1.2344080209732056,16,0.0,0.0,1.57542003E9,,,,0,,5,4.78
Fix,gps,47.423532,8.566622,468.952148,0.000000,3.790092,1651226633000
Raw,134778927,56278764000000,18,,-1335205571664645131,0.03786659240722656,38.64642349071801,-4.742365441166682,9.353540900138505,62,2,0.0,16399,468250350856904,53,23.4,360.1878662109375,0.9284999966621399,16,0.0,0.0,1.57542003E9,,,,0,,1,4.29
Raw,134778927,56278764000000,18,,-1335205571664645131,0.03786659240722656,38.64642349071801,-4.742365441166682,9.353540900138505,62,18,0.0,16399,468250347363435,61,21.6,-724.10546875,1.0929999351501465,16,0.0,0.0,1.57542003E9,,,,0,,1,4.29
Raw,134778927,56278764000000,18,,-1335205571664645131,0.03786659240722656,38.64642349071801,-4.742365441166682,9.353540900138505,62,22,0.0,16399,468250350903426,14,33.8,363.78570556640625,0.037995655089616776,16,0.0,0.0,1.57542003E9,,,,0,,1,4.29
Raw,134778927,56278764000000,18,,-1335205571664645131,0.03786659240722656,38.64642349071801,-4.742365441166682,9.353540900138505,62,26,0.0,16399,468250348650491,61,21.8,-609.1871337890625,1.091499924659729,16,0.0,0.0,1.57542003E9,,,,0,,1,4.29
Raw,134778927,56278764000000,18,,-1335205571664645131,0.03786659240722656,38.64642349071801,-4.742365441166682,9.353540900138505,62,29,0.0,16399,468250360435334,17,32.1,-160.1510772705078,0.05929437652230263,16,0.0,0.0,1.57542003E9,,,,0,,1,4.29
Raw,134778928,56278764000000,18,,-1335205571664645131,0.03786659240722656,38.64642349071801,-4.742365441166682,9.353540900138505,62,31,0.0,16399,468250357305268,11,37.1,-276.5593566894531,0.02469833754003048,16,0.0,0.0,1.57542003E9,,,,0,,1,4.29
Raw,134778928,56278764000000,18,,-1335205571664645131,0.03786659240722656,38.64642349071801,-4.742365441166682,9.353540900138505,62,32,0.0,16399,468250347770371,16,33.2,557.4820556640625,0.04740523174405098,16,0.0,0.0,1.57542003E9,,,,0,,1,4.29
Raw,134778928,56278764000000,18,,-1335205571664645131,0.03786659240722656,38.64642349071801,-4.742365441166682,9.353540900138505,62,10,0.0,49359,47032364109123,19,31.4,-183.45626831054688,0.062844417989254,16,0.0,0.0,1.59806246E9,,,,0,,3,4.67
Raw,134778928,56278764000000,18,,-1335205571664645131,0.03786659240722656,38.64642349071801,-4.742365441166682,9.353540900138505,62,9,0.0,49359,47032360823673,80,20.6,447.93536376953125,2.6065001487731934,16,0.0,0.0,1.60087501E9,,,,0,,3,4.67
Raw,134778928,56278764000000,18,,-1335205571664645131,0.03786659240722656,38.64642349071801,-4.742365441166682,9.353540900138505,62,21,0.0,49359,47032349369123,40,25.1,-846.0061645507812,0.7999999523162842,16,0.0,0.0,1.60424998E9,,,,0,,3,4.67
Raw,134778928,56278764000000,18,,-1335205571664645131,0.03786659240722656,38.64642349071801,-4.742365441166682,9.353540900138505,62,43,0.0,16399,468236353390983,19,31.4,256.3590087890625,0.6260629892349243,16,0.0,0.0,1.56109798E9,,,,0,,5,4.38
Raw,134778929,56278764000000,18,,-1335205571664645131,0.03786659240722656,38.64642349071801,-4.742365441166682,9.353540900138505,62,37,0.0,16399,468236354416305,12,37.2,-215.7013702392578,0.0300663560628891,16,0.0,0.0,1.56109798E9,,,,0,,5,4.38
Raw,134778929,56278764000000,18,,-1335205571664645131,0.03786659240722656,38.64642349071801,-4.742365441166682,9.353540900138505,62,34,0.0,16399,468236341820420,40,25.8,607.21923828125,0.8119999766349792,16,0.0,0.0,1.56109798E9,,,,0,,5,4.38
Raw,134778929,56278764000000,18,,-1335205571664645131,0.03786659240722656,38.64642349071801,-4.742365441166682,9.353540900138505,62,28,0.0,16399,468236353914497,46,24.6,-391.1556396484375,0.8539999723434448,16,0.0,0.0,1.56109798E9,,,,0,,5,4.38
Raw,134778929,56278764000000,18,,-1335205571664645131,0.03786659240722656,38.64642349071801,-4.742365441166682,9.353540900138505,62,27,0.0,16399,468236341541281,70,22.0,-660.3757934570312,1.6880000829696655,16,0.0,0.0,1.56109798E9,,,,0,,5,4.38
Raw,134778929,56278764000000,18,,-1335205571664645131,0.03786659240722656,38.64642349071801,-4.742365441166682,9.353540900138505,62,23,0.0,16399,468236352978514,61,22.5,360.1124572753906,1.005500078201294,16,0.0,0.0,1.56109798E9,,,,0,,5,4.38
Raw,134778929,56278764000000,18,,-1335205571664645131,0.03786659240722656,38.64642349071801,-4.742365441166682,9.353540900138505,62,4,0.0,23567,468250333183980,46,24.7,538.945068359375,1.2130053043365479,16,0.0,0.0,1.57542003E9,,,,0,,6,4.24
Raw,134778929,56278764000000,18,,-1335205571664645131,0.03786659240722656,38.64642349071801,-4.742365441166682,9.353540900138505,62,9,0.0,23567,468250337816440,27,28.5,343.5102844238281,1.180408000946045,16,0.0,0.0,1.57542003E9,,,,0,,6,4.24
Raw,134778930,56278764000000,18,,-1335205571664645131,0.03786659240722656,38.64642349071801,-4.742365441166682,9.353540900138505,62,21,0.0,23567,468250338214393,139,16.6,453.7552490234375,3.8585000038146973,16,0.0,0.0,1.57542003E9,,,,0,,6,4.24
Raw,134778930,56278764000000,18,,-1335205571664645131,0.03786659240722656,38.64642349071801,-4.742365441166682,9.353540900138505,62,31,0.0,23567,468250346837790,14,34.3,-314.1476135253906,0.03801468759775162,16,0.0,0.0,1.57542003E9,,,,0,,6,4.24
Raw,134778930,56278764000000,18,,-1335205571664645131,0.03786659240722656,38.64642349071801,-4.742365441166682,9.353540900138505,62,18,0.0,81935,468250347371079,16,21.8,-723.9536743164062,1.1019999980926514,16,0.0,0.0,1.17645005E9,,,,0,,1,4.29
Raw,134778930,56278764000000,18,,-1335205571664645131,0.03786659240722656,38.64642349071801,-4.742365441166682,9.353540900138505,62,25,0.0,81935,468250361144670,4,34.4,219.37908935546875,0.04747423157095909,16,0.0,0.0,1.17645005E9,,,,0,,1,4.29
Raw,134778930,56278764000000,18,,-1335205571664645131,0.03786659240722656,38.64642349071801,-4.742365441166682,9.353540900138505,62,32,0.0,81935,468250347778210,6,30.0,557.557373046875,0.08002035319805145,16,0.0,0.0,1.17645005E9,,,,0,,1,4.29
Raw,134778930,56278764000000,18,,-1335205571664645131,0.03786659240722656,38.64642349071801,-4.742365441166682,9.353540900138505,62,4,0.0,81935,468250333190351,12,23.8,538.98681640625,0.9509999752044678,16,0.0,0.0,1.17645005E9,,,,0,,6,4.29
Raw,134778930,56278764000000,18,,-1335205571664645131,0.03786659240722656,38.64642349071801,-4.742365441166682,9.353540900138505,62,21,0.0,81935,468250338220765,12,23.5,453.95068359375,0.9584999680519104,16,0.0,0.0,1.17645005E9,,,,0,,6,4.29
Raw,134778931,56278764000000,18,,-1335205571664645131,0.03786659240722656,38.64642349071801,-4.742365441166682,9.353540900138505,62,26,0.0,81935,468250347025777,5,34.0,-107.3042221069336,0.05861479043960571,16,0.0,0.0,1.17645005E9,,,,0,,6,4.29
Raw,134778931,56278764000000,18,,-1335205571664645131,0.03786659240722656,38.64642349071801,-4.742365441166682,9.353540900138505,62,31,0.0,81935,468250346844152,6,31.3,-314.11688232421875,0.06608473509550095,16,0.0,0.0,1.17645005E9,,,,0,,6,4.29
Raw,134778931,56278764000000,18,,-1335205571664645131,0.03786659240722656,38.64642349071801,-4.742365441166682,9.353540900138505,62,23,0.0,16399,468236352984865,6,30.6,361.9328918457031,0.8695688843727112,16,0.0,0.0,1.17645005E9,,,,0,,5,4.29
Raw,134778931,56278764000000,18,,-1335205571664645131,0.03786659240722656,38.64642349071801,-4.742365441166682,9.353540900138505,62,25,0.0,16399,468236340039858,11,23.9,623.6168212890625,0.9593356251716614,16,0.0,0.0,1.17645005E9,,,,0,,5,4.29
Raw,134778931,56278764000000,18,,-1335205571664645131,0.03786659240722656,38.64642349071801,-4.742365441166682,9.353540900138505,62,28,0.0,16399,468236353920752,11,23.6,-390.7439270019531,0.9788355827331543,16,0.0,0.0,1.17645005E9,,,,0,,5,4.29
Raw,134778932,56278764000000,18,,-1335205571664645131,0.03786659240722656,38.64642349071801,-4.742365441166682,9.353540900138505,62,37,0.0,16399,468236354422560,5,32.3,-215.62831115722656,0.10204531252384186,16,0.0,0.0,1.17645005E9,,,,0,,5,4.29
Raw,134778932,56278764000000,18,,-1335205571664645131,0.03786659240722656,38.64642349071801,-4.742365441166682,9.353540900138505,62,38,0.0,16399,468236297963975,11,24.1,2.263981819152832,1.7193197011947632,16,0.0,0.0,1.17645005E9,,,,0,,5,4.29
Raw,134778932,56278764000000,18,,-1335205571664645131,0.03786659240722656,38.64642349071801,-4.742365441166682,9.353540900138505,62,43,0.0,16399,468236353397247,4,34.5,256.38311767578125,0.06374140083789825,16,0.0,0.0,1.17645005E9,,,,0,,5,4.29
Raw,134778932,56278764000000,18,,-1335205571664645131,0.03786659240722656,38.64642349071801,-4.742365441166682,9.353540900138505,62,2,0.0,16399,468250300005888,53,23.3,121.29814147949219,0.9434999823570251,16,0.0,0.0,1.17645005E9,,,,0,,7,3.77
Raw,134778932,56278764000000,18,,-1335205571664645131,0.03786659240722656,38.64642349071801,-4.742365441166682,9.353540900138505,62,6,0.0,16399,468250300186800,53,24.0,11.645641326904297,0.8734999895095825,16,0.0,0.0,1.17645005E9,,,,0,,7,3.77
Raw,134778932,56278764000000,18,,-1335205571664645131,0.03786659240722656,38.64642349071801,-4.742365441166682,9.353540900138505,62,9,0.0,16399,468250290544133,122,17.5,-171.90699768066406,4.431500434875488,16,0.0,0.0,1.17645005E9,,,,0,,7,3.77
Raw,134778933,56278764000000,18,,-1335205571664645131,0.03786659240722656,38.64642349071801,-4.742365441166682,9.353540900138505,62,27,0.0,16399,468236341541169,11,26.1,-660.48974609375,0.7484616637229919,16,0.0,0.0,1.57542003E9,,,,0,,5,4.24
Raw,134778933,56278764000000,18,,-1335205571664645131,0.03786659240722656,38.64642349071801,-4.742365441166682,9.353540900138505,62,28,0.0,16399,468236353914359,12,25.9,-390.777587890625,0.9809999465942383,16,0.0,0.0,1.57542003E9,,,,0,,5,4.24
Raw,134778933,56278764000000,18,,-1335205571664645131,0.03786659240722656,38.64642349071801,-4.742365441166682,9.353540900138505,62,34,0.0,16399,468236341820303,12,25.5,607.645751953125,1.0579999685287476,16,0.0,0.0,1.57542003E9,,,,0,,5,4.24
Raw,134778933,56278764000000,18,,-1335205571664645131,0.03786659240722656,38.64642349071801,-4.742365441166682,9.353540900138505,62,37,0.0,16399,468236354416198,3,40.3,-215.64553833007812,0.08919834345579147,16,0.0,0.0,1.57542003E9,,,,0,,5,4.24
Raw,134778933,56278764000000,18,,-1335205571664645131,0.03786659240722656,38.64642349071801,-4.742365441166682,9.353540900138505,62,38,0.0,16399,468236297957518,11,26.4,2.3512978553771973,1.8992236852645874,16,0.0,0.0,1.57542003E9,,,,0,,5,4.24
Raw,134778933,56278764000000,18,,-1335205571664645131,0.03786659240722656,38.64642349071801,-4.742365441166682,9.353540900138505,62,43,0.0,16399,468236353390873,7,31.8,256.4609375,2.3761701583862305,16,0.0,0.0,1.57542003E9,,,,0,,5,4.24
Fix,gps,47.423531,8.566621,468.608276,0.000000,3.790092,1651226634000
Raw,134779921,56279764000000,18,,-1335205571664645136,0.20989036560058594,39.49608071707189,-3.188959336866368,10.868775213740479,62,12,0.0,16399,468251351796811,92,18.7,567.969482421875,2.813000202178955,16,0.0,0.0,1.57542003E9,,,,0,,1,4.5
Raw,134779921,56279764000000,18,,-1335205571664645136,0.20989036560058594,39.49608071707189,-3.188959336866368,10.868775213740479,62,22,0.0,16399,468251350902204,14,34.1,363.3897705078125,0.037995655089616776,16,0.0,0.0,1.57542003E9,,,,0,,1,4.5
Raw,134779922,56279764000000,18,,-1335205571664645136,0.20989036560058594,39.49608071707189,-3.188959336866368,10.868775213740479,62,25,0.0,16399,468251361136119,70,21.3,218.75209045410156,1.7680000066757202,16,0.0,0.0,1.57542003E9,,,,0,,1,4.5
Raw,134779922,56279764000000,18,,-1335205571664645136,0.20989036560058594,39.49608071707189,-3.188959336866368,10.868775213740479,62,26,0.0,16399,468251348652662,70,21.5,-610.9378051757812,1.091499924659729,16,0.0,0.0,1.57542003E9,,,,0,,1,4.5
Raw,134779922,56279764000000,18,,-1335205571664645136,0.20989036560058594,39.49608071707189,-3.188959336866368,10.868775213740479,62,29,0.0,16399,468251360435919,16,32.8,-160.5325164794922,0.05790523439645767,16,0.0,0.0,1.57542003E9,,,,0,,1,4.5
Raw,134779922,56279764000000,18,,-1335205571664645136,0.20989036560058594,39.49608071707189,-3.188959336866368,10.868775213740479,62,31,0.0,16399,468251357306186,11,37.2,-276.9285888671875,0.02469833754003048,16,0.0,0.0,1.57542003E9,,,,0,,1,4.5
Raw,134779922,56279764000000,18,,-1335205571664645136,0.20989036560058594,39.49608071707189,-3.188959336866368,10.868775213740479,62,32,0.0,16399,468251347768521,16,33.2,557.0294799804688,0.04740523174405098,16,0.0,0.0,1.57542003E9,,,,0,,1,4.5
Raw,134779922,56279764000000,18,,-1335205571664645136,0.20989036560058594,39.49608071707189,-3.188959336866368,10.868775213740479,62,10,0.0,49359,47033364109738,19,31.5,-183.8155517578125,0.062844417989254,16,0.0,0.0,1.59806246E9,,,,0,,3,4.86
Raw,134779923,56279764000000,18,,-1335205571664645136,0.20989036560058594,39.49608071707189,-3.188959336866368,10.868775213740479,62,9,0.0,49359,47033360822002,61,22.0,447.9635009765625,1.0234999656677246,16,0.0,0.0,1.60087501E9,,,,0,,3,4.86
Raw,134779923,56279764000000,18,,-1335205571664645136,0.20989036560058594,39.49608071707189,-3.188959336866368,10.868775213740479,62,21,0.0,49359,47033349372141,35,26.5,-845.5950927734375,0.7400000095367432,16,0.0,0.0,1.60424998E9,,,,0,,3,4.86
Raw,134779923,56279764000000,18,,-1335205571664645136,0.20989036560058594,39.49608071707189,-3.188959336866368,10.868775213740479,62,43,0.0,16399,468237353390132,19,31.6,255.96653747558594,0.04994453489780426,16,0.0,0.0,1.56109798E9,,,,0,,5,4.54
Raw,134779923,56279764000000,18,,-1335205571664645136,0.20989036560058594,39.49608071707189,-3.188959336866368,10.868775213740479,62,38,0.0,16399,468237297957724,80,20.5,1.133033037185669,1.8819999694824219,16,0.0,0.0,1.56109798E9,,,,0,,5,4.54
Raw,134779923,56279764000000,18,,-1335205571664645136,0.20989036560058594,39.49608071707189,-3.188959336866368,10.868775213740479,62,37,0.0,16399,468237354417024,11,37.4,-216.08929443359375,0.02925978973507881,16,0.0,0.0,1.56109798E9,,,,0,,5,4.54
Raw,134779924,56279764000000,18,,-1335205571664645136,0.20989036560058594,39.49608071707189,-3.188959336866368,10.868775213740479,62,28,0.0,16399,468237353915820,40,25.3,-390.55072021484375,0.793999969959259,16,0.0,0.0,1.56109798E9,,,,0,,5,4.54
Raw,134779924,56279764000000,18,,-1335205571664645136,0.20989036560058594,39.49608071707189,-3.188959336866368,10.868775213740479,62,25,0.0,16399,468237340031216,53,23.5,623.3601684570312,2.3565001487731934,16,0.0,0.0,1.56109798E9,,,,0,,5,4.54
Raw,134779924,56279764000000,18,,-1335205571664645136,0.20989036560058594,39.49608071707189,-3.188959336866368,10.868775213740479,62,13,0.0,16399,468237300592422,80,21.1,-179.29766845703125,1.7664999961853027,16,0.0,0.0,1.56109798E9,,,,0,,5,4.54
Raw,134779924,56279764000000,18,,-1335205571664645136,0.20989036560058594,39.49608071707189,-3.188959336866368,10.868775213740479,62,4,0.0,23567,468251333182186,40,25.4,538.3668212890625,0.04856027662754059,16,0.0,0.0,1.57542003E9,,,,0,,6,4.42
Raw,134779925,56279764000000,18,,-1335205571664645136,0.20989036560058594,39.49608071707189,-3.188959336866368,10.868775213740479,62,9,0.0,23567,468251337815268,35,26.6,343.009521484375,0.04205223172903061,16,0.0,0.0,1.57542003E9,,,,0,,6,4.42
Raw,134779925,56279764000000,18,,-1335205571664645136,0.20989036560058594,39.49608071707189,-3.188959336866368,10.868775213740479,62,26,0.0,23567,468251347019728,106,18.4,-107.2780532836914,2.180000066757202,16,0.0,0.0,1.57542003E9,,,,0,,6,4.42
Raw,134779925,56279764000000,18,,-1335205571664645136,0.20989036560058594,39.49608071707189,-3.188959336866368,10.868775213740479,62,31,0.0,23567,468251346838832,13,35.3,-314.60101318359375,0.03689195215702057,16,0.0,0.0,1.57542003E9,,,,0,,6,4.42
Raw,134779925,56279764000000,18,,-1335205571664645136,0.20989036560058594,39.49608071707189,-3.188959336866368,10.868775213740479,62,18,0.0,81935,468251347373489,14,22.6,-724.46337890625,1.0220000743865967,16,0.0,0.0,1.17645005E9,,,,0,,1,4.92
Raw,134779925,56279764000000,18,,-1335205571664645136,0.20989036560058594,39.49608071707189,-3.188959336866368,10.868775213740479,62,25,0.0,81935,468251361143939,4,34.3,218.959716796875,0.04747423157095909,16,0.0,0.0,1.17645005E9,,,,0,,1,4.92
Raw,134779925,56279764000000,18,,-1335205571664645136,0.20989036560058594,39.49608071707189,-3.188959336866368,10.868775213740479,62,32,0.0,81935,468251347776353,6,30.5,557.0567626953125,0.08002035319805145,16,0.0,0.0,1.17645005E9,,,,0,,1,4.92
Raw,134779925,56279764000000,18,,-1335205571664645136,0.20989036560058594,39.49608071707189,-3.188959336866368,10.868775213740479,62,4,0.0,81935,468251333188548,11,24.5,538.4235229492188,0.18435150384902954,16,0.0,0.0,1.17645005E9,,,,0,,6,4.92
Raw,134779926,56279764000000,18,,-1335205571664645136,0.20989036560058594,39.49608071707189,-3.188959336866368,10.868775213740479,62,21,0.0,81935,468251338219255,14,23.2,453.3390808105469,0.9584999680519104,16,0.0,0.0,1.17645005E9,,,,0,,6,4.92
Raw,134779926,56279764000000,18,,-1335205571664645136,0.20989036560058594,39.49608071707189,-3.188959336866368,10.868775213740479,62,26,0.0,81935,468251347026139,5,33.4,-107.72547912597656,0.05861479043960571,16,0.0,0.0,1.17645005E9,,,,0,,6,4.92
Raw,134779926,56279764000000,18,,-1335205571664645136,0.20989036560058594,39.49608071707189,-3.188959336866368,10.868775213740479,62,31,0.0,81935,468251346845201,6,30.7,-314.56536865234375,0.07852034270763397,16,0.0,0.0,1.17645005E9,,,,0,,6,4.92
Raw,134779926,56279764000000,18,,-1335205571664645136,0.20989036560058594,39.49608071707189,-3.188959336866368,10.868775213740479,62,33,0.0,81935,468251343063449,11,24.3,-548.055908203125,1.698319673538208,16,0.0,0.0,1.17645005E9,,,,0,,6,4.92
Raw,134779926,56279764000000,18,,-1335205571664645136,0.20989036560058594,39.49608071707189,-3.188959336866368,10.868775213740479,62,23,0.0,16399,468237352983662,5,32.5,361.4899597167969,0.09611479192972183,16,0.0,0.0,1.17645005E9,,,,0,,5,4.92
Raw,134779926,56279764000000,18,,-1335205571664645136,0.20989036560058594,39.49608071707189,-3.188959336866368,10.868775213740479,62,25,0.0,16399,468237340037781,11,23.7,623.0818481445312,0.19485150277614594,16,0.0,0.0,1.17645005E9,,,,0,,5,4.92
Raw,134779927,56279764000000,18,,-1335205571664645136,0.20989036560058594,39.49608071707189,-3.188959336866368,10.868775213740479,62,28,0.0,16399,468237353922054,11,23.9,-391.2240905761719,0.9788355827331543,16,0.0,0.0,1.17645005E9,,,,0,,5,4.92
Raw,134779927,56279764000000,18,,-1335205571664645136,0.20989036560058594,39.49608071707189,-3.188959336866368,10.868775213740479,62,37,0.0,16399,468237354423277,5,33.0,-216.11273193359375,0.099114790558815,16,0.0,0.0,1.17645005E9,,,,0,,5,4.92
Raw,134779927,56279764000000,18,,-1335205571664645136,0.20989036560058594,39.49608071707189,-3.188959336866368,10.868775213740479,62,38,0.0,16399,468237297963970,11,23.9,1.8079183101654053,0.19035151600837708,16,0.0,0.0,1.17645005E9,,,,0,,5,4.92
Raw,134779927,56279764000000,18,,-1335205571664645136,0.20989036560058594,39.49608071707189,-3.188959336866368,10.868775213740479,62,43,0.0,16399,468237353396394,4,34.5,255.94573974609375,0.06374140083789825,16,0.0,0.0,1.17645005E9,,,,0,,5,4.92
Raw,134779928,56279764000000,18,,-1335205571664645136,0.20989036560058594,39.49608071707189,-3.188959336866368,10.868775213740479,62,2,0.0,16399,468251300005398,46,24.5,120.53366088867188,0.8734999895095825,16,0.0,0.0,1.17645005E9,,,,0,,7,4.54
Raw,134779928,56279764000000,18,,-1335205571664645136,0.20989036560058594,39.49608071707189,-3.188959336866368,10.868775213740479,62,6,0.0,16399,468251300186719,70,21.6,11.135985374450684,1.1034998893737793,16,0.0,0.0,1.17645005E9,,,,0,,7,4.54
Raw,134779928,56279764000000,18,,-1335205571664645136,0.20989036560058594,39.49608071707189,-3.188959336866368,10.868775213740479,62,27,0.0,16399,468237341543367,10,27.3,-661.0665283203125,0.6931242942810059,16,0.0,0.0,1.57542003E9,,,,0,,5,4.42
Raw,134779928,56279764000000,18,,-1335205571664645136,0.20989036560058594,39.49608071707189,-3.188959336866368,10.868775213740479,62,28,0.0,16399,468237353915703,12,25.6,-391.1866760253906,1.0609999895095825,16,0.0,0.0,1.57542003E9,,,,0,,5,4.42
Raw,134779928,56279764000000,18,,-1335205571664645136,0.20989036560058594,39.49608071707189,-3.188959336866368,10.868775213740479,62,37,0.0,16399,468237354416918,3,40.7,-216.10589599609375,0.08919834345579147,16,0.0,0.0,1.57542003E9,,,,0,,5,4.42
Raw,134779928,56279764000000,18,,-1335205571664645136,0.20989036560058594,39.49608071707189,-3.188959336866368,10.868775213740479,62,38,0.0,16399,468237297957548,11,26.8,1.8126546144485474,0.18658068776130676,16,0.0,0.0,1.57542003E9,,,,0,,5,4.42
Raw,134779928,56279764000000,18,,-1335205571664645136,0.20989036560058594,39.49608071707189,-3.188959336866368,10.868775213740479,62,43,0.0,16399,468237353390025,6,32.5,255.96746826171875,0.09139003604650497,16,0.0,0.0,1.57542003E9,,,,0,,5,4.42
Fix,gps,47.423531,8.566621,468.432007,0.000000,3.790092,1651226635000
Raw,134780920,56280764000000,18,,-1335205571664645147,0.7492752075195312,38.86679041897878,-4.531835664785945,9.860773679970052,62,18,0.0,16399,468252347368226,80,20.5,-725.171142578125,1.8669999837875366,16,0.0,0.0,1.57542003E9,,,,0,,1,4.63
Raw,134780920,56280764000000,18,,-1335205571664645147,0.7492752075195312,38.86679041897878,-4.531835664785945,9.860773679970052,62,22,0.0,16399,468252350900992,13,34.7,363.72308349609375,0.03689195215702057,16,0.0,0.0,1.57542003E9,,,,0,,1,4.63
Raw,134780920,56280764000000,18,,-1335205571664645147,0.7492752075195312,38.86679041897878,-4.531835664785945,9.860773679970052,62,25,0.0,16399,468252361135429,61,22.1,218.48568725585938,1.0220000743865967,16,0.0,0.0,1.57542003E9,,,,0,,1,4.63
Raw,134780920,56280764000000,18,,-1335205571664645147,0.7492752075195312,38.86679041897878,-4.531835664785945,9.860773679970052,62,26,0.0,16399,468252348654678,70,21.2,-609.7865600585938,1.091499924659729,16,0.0,0.0,1.57542003E9,,,,0,,1,4.63
Raw,134780920,56280764000000,18,,-1335205571664645147,0.7492752075195312,38.86679041897878,-4.531835664785945,9.860773679970052,62,29,0.0,16399,468252360436410,16,33.0,-160.18528747558594,0.05790523439645767,16,0.0,0.0,1.57542003E9,,,,0,,1,4.63
Raw,134780920,56280764000000,18,,-1335205571664645147,0.7492752075195312,38.86679041897878,-4.531835664785945,9.860773679970052,62,31,0.0,16399,468252357307107,11,37.5,-276.5776672363281,0.02469833754003048,16,0.0,0.0,1.57542003E9,,,,0,,1,4.63
Raw,134780920,56280764000000,18,,-1335205571664645147,0.7492752075195312,38.86679041897878,-4.531835664785945,9.860773679970052,62,32,0.0,16399,468252347766668,16,33.3,557.3299560546875,0.04740523174405098,16,0.0,0.0,1.57542003E9,,,,0,,1,4.63
Raw,134780920,56280764000000,18,,-1335205571664645147,0.7492752075195312,38.86679041897878,-4.531835664785945,9.860773679970052,62,10,0.0,49359,47034364110395,17,32.2,-183.44342041015625,0.053070589900016785,16,0.0,0.0,1.59806246E9,,,,0,,3,4.96
Raw,134780920,56280764000000,18,,-1335205571664645147,0.7492752075195312,38.86679041897878,-4.531835664785945,9.860773679970052,62,2,0.0,49359,47034349585701,181,14.9,-198.58734130859375,10.070001602172852,16,0.0,0.0,1.59975002E9,,,,0,,3,4.96
Raw,134780920,56280764000000,18,,-1335205571664645147,0.7492752075195312,38.86679041897878,-4.531835664785945,9.860773679970052,62,9,0.0,49359,47034360820718,53,23.1,448.58148193359375,0.9434999823570251,16,0.0,0.0,1.60087501E9,,,,0,,3,4.96
Raw,134780920,56280764000000,18,,-1335205571664645147,0.7492752075195312,38.86679041897878,-4.531835664785945,9.860773679970052,62,21,0.0,49359,47034349374750,35,26.4,-845.4175415039062,0.7400000095367432,16,0.0,0.0,1.60424998E9,,,,0,,3,4.96
Raw,134780920,56280764000000,18,,-1335205571664645147,0.7492752075195312,38.86679041897878,-4.531835664785945,9.860773679970052,62,43,0.0,16399,468238353389267,19,32.0,256.3128967285156,0.6260629892349243,16,0.0,0.0,1.56109798E9,,,,0,,5,4.71
Raw,134780920,56280764000000,18,,-1335205571664645147,0.7492752075195312,38.86679041897878,-4.531835664785945,9.860773679970052,62,37,0.0,16399,468238354417742,11,37.3,-215.76986694335938,0.02925978973507881,16,0.0,0.0,1.56109798E9,,,,0,,5,4.71
Raw,134780920,56280764000000,18,,-1335205571664645147,0.7492752075195312,38.86679041897878,-4.531835664785945,9.860773679970052,62,34,0.0,16399,468238341816348,61,22.4,606.8447875976562,1.6880000829696655,16,0.0,0.0,1.56109798E9,,,,0,,5,4.71
Raw,134780920,56280764000000,18,,-1335205571664645147,0.7492752075195312,38.86679041897878,-4.531835664785945,9.860773679970052,62,28,0.0,16399,468238353917095,35,26.3,-390.9252014160156,0.7339999675750732,16,0.0,0.0,1.56109798E9,,,,0,,5,4.71
Raw,134780921,56280764000000,18,,-1335205571664645147,0.7492752075195312,38.86679041897878,-4.531835664785945,9.860773679970052,62,27,0.0,16399,468238341545726,61,22.8,-661.1631469726562,1.6880000829696655,16,0.0,0.0,1.56109798E9,,,,0,,5,4.71
Raw,134780921,56280764000000,18,,-1335205571664645147,0.7492752075195312,38.86679041897878,-4.531835664785945,9.860773679970052,62,23,0.0,16399,468238352976034,61,22.4,361.69677734375,1.7044999599456787,16,0.0,0.0,1.56109798E9,,,,0,,5,4.71
Raw,134780921,56280764000000,18,,-1335205571664645147,0.7492752075195312,38.86679041897878,-4.531835664785945,9.860773679970052,62,5,0.0,16399,468238296242071,46,24.7,-9.342721939086914,8.314800262451172,16,0.0,0.0,1.56109798E9,,,,0,,5,4.71
Raw,134780921,56280764000000,18,,-1335205571664645147,0.7492752075195312,38.86679041897878,-4.531835664785945,9.860773679970052,62,4,0.0,23567,468252333180374,35,26.5,538.6146850585938,0.04205223172903061,16,0.0,0.0,1.57542003E9,,,,0,,6,4.58
Raw,134780921,56280764000000,18,,-1335205571664645147,0.7492752075195312,38.86679041897878,-4.531835664785945,9.860773679970052,62,9,0.0,23567,468252337814132,31,28.1,343.3034973144531,0.04020638018846512,16,0.0,0.0,1.57542003E9,,,,0,,6,4.58
Raw,134780921,56280764000000,18,,-1335205571664645147,0.7492752075195312,38.86679041897878,-4.531835664785945,9.860773679970052,62,21,0.0,23567,468252338211329,92,19.4,453.33660888671875,2.0185000896453857,16,0.0,0.0,1.57542003E9,,,,0,,6,4.58
Raw,134780921,56280764000000,18,,-1335205571664645147,0.7492752075195312,38.86679041897878,-4.531835664785945,9.860773679970052,62,31,0.0,23567,468252346839883,13,35.4,-314.3258972167969,0.03689195215702057,16,0.0,0.0,1.57542003E9,,,,0,,6,4.58
Raw,134780921,56280764000000,18,,-1335205571664645147,0.7492752075195312,38.86679041897878,-4.531835664785945,9.860773679970052,62,33,0.0,23567,468252343058894,159,15.4,-547.7318115234375,5.490000247955322,16,0.0,0.0,1.57542003E9,,,,0,,6,4.58
Raw,134780921,56280764000000,18,,-1335205571664645147,0.7492752075195312,38.86679041897878,-4.531835664785945,9.860773679970052,62,18,0.0,81935,468252347375900,14,22.4,-723.8008422851562,1.0220000743865967,16,0.0,0.0,1.17645005E9,,,,0,,1,4.92
Raw,134780921,56280764000000,18,,-1335205571664645147,0.7492752075195312,38.86679041897878,-4.531835664785945,9.860773679970052,62,25,0.0,81935,468252361143209,4,34.2,219.2791290283203,0.04747423157095909,16,0.0,0.0,1.17645005E9,,,,0,,1,4.92
Raw,134780921,56280764000000,18,,-1335205571664645147,0.7492752075195312,38.86679041897878,-4.531835664785945,9.860773679970052,62,32,0.0,81935,468252347774491,6,30.3,557.330810546875,0.08002035319805145,16,0.0,0.0,1.17645005E9,,,,0,,1,4.92
Raw,134780921,56280764000000,18,,-1335205571664645147,0.7492752075195312,38.86679041897878,-4.531835664785945,9.860773679970052,62,4,0.0,81935,468252333186753,11,25.0,538.6051635742188,0.18435150384902954,16,0.0,0.0,1.17645005E9,,,,0,,6,4.92
Raw,134780921,56280764000000,18,,-1335205571664645147,0.7492752075195312,38.86679041897878,-4.531835664785945,9.860773679970052,62,21,0.0,81935,468252338217748,16,21.9,453.2498779296875,1.118499994277954,16,0.0,0.0,1.17645005E9,,,,0,,6,4.92
Raw,134780921,56280764000000,18,,-1335205571664645147,0.7492752075195312,38.86679041897878,-4.531835664785945,9.860773679970052,62,26,0.0,81935,468252347026498,5,34.0,-107.40641784667969,0.05861479043960571,16,0.0,0.0,1.17645005E9,,,,0,,6,4.92
Raw,134780921,56280764000000,18,,-1335205571664645147,0.7492752075195312,38.86679041897878,-4.531835664785945,9.860773679970052,62,31,0.0,81935,468252346846251,6,30.3,-314.3349609375,0.8430044651031494,16,0.0,0.0,1.17645005E9,,,,0,,6,4.92
Raw,134780921,56280764000000,18,,-1335205571664645147,0.7492752075195312,38.86679041897878,-4.531835664785945,9.860773679970052,62,33,0.0,81935,468252343065282,14,23.1,-547.9567260742188,0.9359999895095825,16,0.0,0.0,1.17645005E9,,,,0,,6,4.92
Raw,134780921,56280764000000,18,,-1335205571664645147,0.7492752075195312,38.86679041897878,-4.531835664785945,9.860773679970052,62,23,0.0,16399,468238352982452,5,32.2,361.8163757324219,0.09904531389474869,16,0.0,0.0,1.17645005E9,,,,0,,5,4.92
Raw,134780921,56280764000000,18,,-1335205571664645147,0.7492752075195312,38.86679041897878,-4.531835664785945,9.860773679970052,62,25,0.0,16399,468238340035704,11,24.2,623.4104614257812,0.19485150277614594,16,0.0,0.0,1.17645005E9,,,,0,,5,4.92
Raw,134780921,56280764000000,18,,-1335205571664645147,0.7492752075195312,38.86679041897878,-4.531835664785945,9.860773679970052,62,28,0.0,16399,468238353923361,10,24.9,-390.8869323730469,0.14024752378463745,16,0.0,0.0,1.17645005E9,,,,0,,5,4.92
Raw,134780921,56280764000000,18,,-1335205571664645147,0.7492752075195312,38.86679041897878,-4.531835664785945,9.860773679970052,62,37,0.0,16399,468238354423998,5,33.2,-215.7924346923828,0.099114790558815,16,0.0,0.0,1.17645005E9,,,,0,,5,4.92
Raw,134780921,56280764000000,18,,-1335205571664645147,0.7492752075195312,38.86679041897878,-4.531835664785945,9.860773679970052,62,38,0.0,16399,468238297963963,11,24.4,2.0902254581451416,0.19035151600837708,16,0.0,0.0,1.17645005E9,,,,0,,5,4.92
Raw,134780921,56280764000000,18,,-1335205571664645147,0.7492752075195312,38.86679041897878,-4.531835664785945,9.860773679970052,62,43,0.0,16399,468238353395539,4,34.6,256.29754638671875,0.06374140083789825,16,0.0,0.0,1.17645005E9,,,,0,,5,4.92
Raw,134780921,56280764000000,18,,-1335205571664645147,0.7492752075195312,38.86679041897878,-4.531835664785945,9.860773679970052,62,2,0.0,16399,468252300005044,53,23.5,119.89659118652344,0.9434999823570251,16,0.0,0.0,1.17645005E9,,,,0,,7,4.42
Raw,134780921,56280764000000,18,,-1335205571664645147,0.7492752075195312,38.86679041897878,-4.531835664785945,9.860773679970052,62,6,0.0,16399,468252300186690,53,23.6,11.148726463317871,0.9434999823570251,16,0.0,0.0,1.17645005E9,,,,0,,7,4.42
Raw,134780921,56280764000000,18,,-1335205571664645147,0.7492752075195312,38.86679041897878,-4.531835664785945,9.860773679970052,62,23,0.0,16399,468238352976038,12,25.9,361.6150817871094,0.9794999957084656,16,0.0,0.0,1.57542003E9,,,,0,,5,4.58
Raw,134780921,56280764000000,18,,-1335205571664645147,0.7492752075195312,38.86679041897878,-4.531835664785945,9.860773679970052,62,27,0.0,16399,468238341545544,11,26.3,-660.7863159179688,0.17758068442344666,16,0.0,0.0,1.57542003E9,,,,0,,5,4.58
Raw,134780922,56280764000000,18,,-1335205571664645147,0.7492752075195312,38.86679041897878,-4.531835664785945,9.860773679970052,62,28,0.0,16399,468238353916986,11,26.7,-390.9300842285156,0.18058067560195923,16,0.0,0.0,1.57542003E9,,,,0,,5,4.58
Raw,134780922,56280764000000,18,,-1335205571664645147,0.7492752075195312,38.86679041897878,-4.531835664785945,9.860773679970052,62,37,0.0,16399,468238354417642,2,41.0,-215.78916931152344,0.08839910477399826,16,0.0,0.0,1.57542003E9,,,,0,,5,4.58
Raw,134780922,56280764000000,18,,-1335205571664645147,0.7492752075195312,38.86679041897878,-4.531835664785945,9.860773679970052,62,38,0.0,16399,468238297957567,11,26.4,2.0869483947753906,0.18658068776130676,16,0.0,0.0,1.57542003E9,,,,0,,5,4.58
Raw,134780922,56280764000000,18,,-1335205571664645147,0.7492752075195312,38.86679041897878,-4.531835664785945,9.860773679970052,62,43,0.0,16399,468238353389180,6,32.3,256.32086181640625,0.09139003604650497,16,0.0,0.0,1.57542003E9,,,,0,,5,4.58
Fix,gps,47.423530,8.566621,468.192444,0.000000,3.790092,1651226636000
Raw,134781928,56281764000000,18,,-1335205571664645150,0.292205810546875,40.05708251497708,-3.769758584608227,11.499556142006721,62,2,0.0,16399,468253350853201,80,20.1,360.9870910644531,2.621500015258789,16,0.0,0.0,1.57542003E9,,,,0,,1,4.63
Raw,134781928,56281764000000,18,,-1335205571664645150,0.292205810546875,40.05708251497708,-3.769758584608227,11.499556142006721,62,22,0.0,16399,468253350899767,14,34.5,363.6318359375,0.037995655089616776,16,0.0,0.0,1.57542003E9,,,,0,,1,4.63
Raw,134781928,56281764000000,18,,-1335205571664645150,0.292205810546875,40.05708251497708,-3.769758584608227,11.499556142006721,62,25,0.0,16399,468253361134685,53,23.5,219.56085205078125,0.9419999718666077,16,0.0,0.0,1.57542003E9,,,,0,,1,4.63
Raw,134781929,56281764000000,18,,-1335205571664645150,0.292205810546875,40.05708251497708,-3.769758584608227,11.499556142006721,62,26,0.0,16399,468253348656597,53,22.8,-609.5391845703125,1.0115000009536743,16,0.0,0.0,1.57542003E9,,,,0,,1,4.63
Raw,134781929,56281764000000,18,,-1335205571664645150,0.292205810546875,40.05708251497708,-3.769758584608227,11.499556142006721,62,29,0.0,16399,468253360436991,16,32.6,-160.2518310546875,0.05790523439645767,16,0.0,0.0,1.57542003E9,,,,0,,1,4.63
Raw,134781929,56281764000000,18,,-1335205571664645150,0.292205810546875,40.05708251497708,-3.769758584608227,11.499556142006721,62,31,0.0,16399,468253357308059,10,37.8,-276.6452331542969,0.023899104446172714,16,0.0,0.0,1.57542003E9,,,,0,,1,4.63
Raw,134781929,56281764000000,18,,-1335205571664645150,0.292205810546875,40.05708251497708,-3.769758584608227,11.499556142006721,62,32,0.0,16399,468253347764816,17,32.0,557.1823120117188,0.048794373869895935,16,0.0,0.0,1.57542003E9,,,,0,,1,4.63
Raw,134781929,56281764000000,18,,-1335205571664645150,0.292205810546875,40.05708251497708,-3.769758584608227,11.499556142006721,62,10,0.0,49359,47035364110972,19,31.5,-183.4998779296875,0.062844417989254,16,0.0,0.0,1.59806246E9,,,,0,,3,4.97
Raw,134781929,56281764000000,18,,-1335205571664645150,0.292205810546875,40.05708251497708,-3.769758584608227,11.499556142006721,62,21,0.0,49359,47035349377568,40,25.7,-846.23974609375,0.7999999523162842,16,0.0,0.0,1.60424998E9,,,,0,,3,4.97
Raw,134781929,56281764000000,18,,-1335205571664645150,0.292205810546875,40.05708251497708,-3.769758584608227,11.499556142006721,62,43,0.0,16399,468239353388417,19,31.5,256.242431640625,1.2021815776824951,16,0.0,0.0,1.56109798E9,,,,0,,5,4.81
Raw,134781930,56281764000000,18,,-1335205571664645150,0.292205810546875,40.05708251497708,-3.769758584608227,11.499556142006721,62,38,0.0,16399,468239297957729,80,20.9,2.563727378845215,1.8819999694824219,16,0.0,0.0,1.56109798E9,,,,0,,5,4.81
Raw,134781930,56281764000000,18,,-1335205571664645150,0.292205810546875,40.05708251497708,-3.769758584608227,11.499556142006721,62,37,0.0,16399,468239354418460,12,36.9,-215.8616943359375,0.0300663560628891,16,0.0,0.0,1.56109798E9,,,,0,,5,4.81
Raw,134781930,56281764000000,18,,-1335205571664645150,0.292205810546875,40.05708251497708,-3.769758584608227,11.499556142006721,62,28,0.0,16399,468239353918378,35,26.5,-390.85797119140625,0.7339999675750732,16,0.0,0.0,1.56109798E9,,,,0,,5,4.81
Raw,134781930,56281764000000,18,,-1335205571664645150,0.292205810546875,40.05708251497708,-3.769758584608227,11.499556142006721,62,27,0.0,16399,468239341547905,61,22.9,-660.9711303710938,1.0220000743865967,16,0.0,0.0,1.56109798E9,,,,0,,5,4.81
Raw,134781930,56281764000000,18,,-1335205571664645150,0.292205810546875,40.05708251497708,-3.769758584608227,11.499556142006721,62,23,0.0,16399,468239352974851,53,23.9,360.0068359375,0.9254999756813049,16,0.0,0.0,1.56109798E9,,,,0,,5,4.81
Raw,134781930,56281764000000,18,,-1335205571664645150,0.292205810546875,40.05708251497708,-3.769758584608227,11.499556142006721,62,11,0.0,16399,468239348879691,92,20.0,494.9241638183594,3.368500232696533,16,0.0,0.0,1.56109798E9,,,,0,,5,4.81
Raw,134781930,56281764000000,18,,-1335205571664645150,0.292205810546875,40.05708251497708,-3.769758584608227,11.499556142006721,62,8,0.0,16399,468239300521239,181,14.7,-87.70443725585938,10.056500434875488,16,0.0,0.0,1.56109798E9,,,,0,,5,4.81
Raw,134781931,56281764000000,18,,-1335205571664645150,0.292205810546875,40.05708251497708,-3.769758584608227,11.499556142006721,62,4,0.0,23567,468253333178606,40,25.8,538.4488525390625,0.04856027662754059,16,0.0,0.0,1.57542003E9,,,,0,,6,4.58
Raw,134781931,56281764000000,18,,-1335205571664645150,0.292205810546875,40.05708251497708,-3.769758584608227,11.499556142006721,62,9,0.0,23567,468253337813000,35,27.2,343.1820983886719,0.04205223172903061,16,0.0,0.0,1.57542003E9,,,,0,,6,4.58
Raw,134781931,56281764000000,18,,-1335205571664645150,0.292205810546875,40.05708251497708,-3.769758584608227,11.499556142006721,62,26,0.0,23567,468253347020382,80,20.3,-107.17340087890625,1.9900000095367432,16,0.0,0.0,1.57542003E9,,,,0,,6,4.58
Raw,134781931,56281764000000,18,,-1335205571664645150,0.292205810546875,40.05708251497708,-3.769758584608227,11.499556142006721,62,31,0.0,23567,468253346840929,13,36.2,-314.4573974609375,0.03689195215702057,16,0.0,0.0,1.57542003E9,,,,0,,6,4.58
Raw,134781931,56281764000000,18,,-1335205571664645150,0.292205810546875,40.05708251497708,-3.769758584608227,11.499556142006721,62,25,0.0,81935,468253361142479,5,33.6,219.20208740234375,0.049614787101745605,16,0.0,0.0,1.17645005E9,,,,0,,1,4.39
Raw,134781931,56281764000000,18,,-1335205571664645150,0.292205810546875,40.05708251497708,-3.769758584608227,11.499556142006721,62,32,0.0,81935,468253347772636,6,29.9,557.1744384765625,0.08002035319805145,16,0.0,0.0,1.17645005E9,,,,0,,1,4.39
Raw,134781932,56281764000000,18,,-1335205571664645150,0.292205810546875,40.05708251497708,-3.769758584608227,11.499556142006721,62,4,0.0,81935,468253333184964,14,23.2,538.6682739257812,0.9509999752044678,16,0.0,0.0,1.17645005E9,,,,0,,6,4.39
Raw,134781932,56281764000000,18,,-1335205571664645150,0.292205810546875,40.05708251497708,-3.769758584608227,11.499556142006721,62,21,0.0,81935,468253338216215,14,22.4,453.1861877441406,1.0385000705718994,16,0.0,0.0,1.17645005E9,,,,0,,6,4.39
Raw,134781932,56281764000000,18,,-1335205571664645150,0.292205810546875,40.05708251497708,-3.769758584608227,11.499556142006721,62,26,0.0,81935,468253347026861,5,32.7,-107.4454574584961,0.06154531240463257,16,0.0,0.0,1.17645005E9,,,,0,,6,4.39
Raw,134781932,56281764000000,18,,-1335205571664645150,0.292205810546875,40.05708251497708,-3.769758584608227,11.499556142006721,62,31,0.0,81935,468253346847298,7,29.7,-314.4734191894531,0.09900851547718048,16,0.0,0.0,1.17645005E9,,,,0,,6,4.39
Raw,134781932,56281764000000,18,,-1335205571664645150,0.292205810546875,40.05708251497708,-3.769758584608227,11.499556142006721,62,33,0.0,81935,468253343067113,12,23.6,-548.2880249023438,0.9359999895095825,16,0.0,0.0,1.17645005E9,,,,0,,6,4.39
Raw,134781933,56281764000000,18,,-1335205571664645150,0.292205810546875,40.05708251497708,-3.769758584608227,11.499556142006721,62,23,0.0,16399,468239352981247,5,32.5,361.6983947753906,0.09611479192972183,16,0.0,0.0,1.17645005E9,,,,0,,5,4.39
Raw,134781933,56281764000000,18,,-1335205571664645150,0.292205810546875,40.05708251497708,-3.769758584608227,11.499556142006721,62,25,0.0,16399,468239340033621,12,22.6,623.2584228515625,1.0414999723434448,16,0.0,0.0,1.17645005E9,,,,0,,5,4.39
Raw,134781933,56281764000000,18,,-1335205571664645150,0.292205810546875,40.05708251497708,-3.769758584608227,11.499556142006721,62,28,0.0,16399,468239353924658,11,24.2,-390.9804992675781,0.21435150504112244,16,0.0,0.0,1.17645005E9,,,,0,,5,4.39
Raw,134781933,56281764000000,18,,-1335205571664645150,0.292205810546875,40.05708251497708,-3.769758584608227,11.499556142006721,62,37,0.0,16399,468239354424719,5,32.9,-215.84840393066406,0.099114790558815,16,0.0,0.0,1.17645005E9,,,,0,,5,4.39
Raw,134781933,56281764000000,18,,-1335205571664645150,0.292205810546875,40.05708251497708,-3.769758584608227,11.499556142006721,62,38,0.0,16399,468239297963959,11,24.3,1.9012246131896973,0.19035151600837708,16,0.0,0.0,1.17645005E9,,,,0,,5,4.39
Raw,134781933,56281764000000,18,,-1335205571664645150,0.292205810546875,40.05708251497708,-3.769758584608227,11.499556142006721,62,43,0.0,16399,468239353394685,4,34.7,256.2395324707031,0.06374140083789825,16,0.0,0.0,1.17645005E9,,,,0,,5,4.39
Raw,134781934,56281764000000,18,,-1335205571664645150,0.292205810546875,40.05708251497708,-3.769758584608227,11.499556142006721,62,6,0.0,16399,468253300186712,61,22.4,9.696206092834473,1.0234999656677246,16,0.0,0.0,1.17645005E9,,,,0,,7,3.92
Raw,134781934,56281764000000,18,,-1335205571664645150,0.292205810546875,40.05708251497708,-3.769758584608227,11.499556142006721,62,25,0.0,16399,468239340027305,14,24.8,623.2308349609375,1.0565000772476196,16,0.0,0.0,1.57542003E9,,,,0,,5,4.58
Raw,134781934,56281764000000,18,,-1335205571664645150,0.292205810546875,40.05708251497708,-3.769758584608227,11.499556142006721,62,27,0.0,16399,468239341547779,11,26.7,-660.9205932617188,0.17758068442344666,16,0.0,0.0,1.57542003E9,,,,0,,5,4.58
Raw,134781934,56281764000000,18,,-1335205571664645150,0.292205810546875,40.05708251497708,-3.769758584608227,11.499556142006721,62,28,0.0,16399,468239353918303,10,27.1,-391.0065612792969,0.12524327635765076,16,0.0,0.0,1.57542003E9,,,,0,,5,4.58
Raw,134781934,56281764000000,18,,-1335205571664645150,0.292205810546875,40.05708251497708,-3.769758584608227,11.499556142006721,62,34,0.0,16399,468239341814282,20,21.7,607.2271118164062,2.818000078201294,16,0.0,0.0,1.57542003E9,,,,0,,5,4.58
Raw,134781934,56281764000000,18,,-1335205571664645150,0.292205810546875,40.05708251497708,-3.769758584608227,11.499556142006721,62,37,0.0,16399,468239354418355,3,40.8,-215.86363220214844,0.08919834345579147,16,0.0,0.0,1.57542003E9,,,,0,,5,4.58
Raw,134781934,56281764000000,18,,-1335205571664645150,0.292205810546875,40.05708251497708,-3.769758584608227,11.499556142006721,62,38,0.0,16399,468239297957560,11,26.3,1.937025547027588,0.757461667060852,16,0.0,0.0,1.57542003E9,,,,0,,5,4.58
Raw,134781935,56281764000000,18,,-1335205571664645150,0.292205810546875,40.05708251497708,-3.769758584608227,11.499556142006721,62,43,0.0,16399,468239353388313,7,31.3,256.2223815917969,0.09264597296714783,16,0.0,0.0,1.57542003E9,,,,0,,5,4.58
Fix,gps,47.423530,8.566620,467.921753,0.000000,3.790092,1651226637000
Raw,134782934,56282764000000,18,,-1335205571664645157,0.3184623718261719,37.868627259740606,-4.219009577066566,7.3226152216416995,62,12,0.0,16399,468254351791045,80,19.8,569.1303100585938,2.7130000591278076,16,0.0,0.0,1.57542003E9,,,,0,,1,4.72
Raw,134782934,56282764000000,18,,-1335205571664645157,0.3184623718261719,37.868627259740606,-4.219009577066566,7.3226152216416995,62,18,0.0,16399,468254347372900,61,21.8,-723.4965209960938,1.7769999504089355,16,0.0,0.0,1.57542003E9,,,,0,,1,4.72
Raw,134782934,56282764000000,18,,-1335205571664645157,0.3184623718261719,37.868627259740606,-4.219009577066566,7.3226152216416995,62,22,0.0,16399,468254350898568,13,34.6,364.0933837890625,0.03689195215702057,16,0.0,0.0,1.57542003E9,,,,0,,1,4.72
Raw,134782934,56282764000000,18,,-1335205571664645157,0.3184623718261719,37.868627259740606,-4.219009577066566,7.3226152216416995,62,25,0.0,16399,468254361133921,61,22.3,219.1802520751953,1.0220000743865967,16,0.0,0.0,1.57542003E9,,,,0,,1,4.72
Raw,134782934,56282764000000,18,,-1335205571664645157,0.3184623718261719,37.868627259740606,-4.219009577066566,7.3226152216416995,62,29,0.0,16399,468254360437521,16,33.2,-159.76097106933594,0.05790523439645767,16,0.0,0.0,1.57542003E9,,,,0,,1,4.72
Raw,134782934,56282764000000,18,,-1335205571664645157,0.3184623718261719,37.868627259740606,-4.219009577066566,7.3226152216416995,62,31,0.0,16399,468254357308954,11,37.3,-276.15313720703125,0.02469833754003048,16,0.0,0.0,1.57542003E9,,,,0,,1,4.72
Raw,134782934,56282764000000,18,,-1335205571664645157,0.3184623718261719,37.868627259740606,-4.219009577066566,7.3226152216416995,62,32,0.0,16399,468254347762946,16,32.6,557.5907592773438,0.04740523174405098,16,0.0,0.0,1.57542003E9,,,,0,,1,4.72
Raw,134782934,56282764000000,18,,-1335205571664645157,0.3184623718261719,37.868627259740606,-4.219009577066566,7.3226152216416995,62,10,0.0,49359,47036364111636,19,31.9,-183.05526733398438,0.062844417989254,16,0.0,0.0,1.59806246E9,,,,0,,3,5.05
Raw,134782934,56282764000000,18,,-1335205571664645157,0.3184623718261719,37.868627259740606,-4.219009577066566,7.3226152216416995,62,9,0.0,49359,47036360817666,61,22.9,448.2350158691406,1.686500072479248,16,0.0,0.0,1.60087501E9,,,,0,,3,5.05
Raw,134782934,56282764000000,18,,-1335205571664645157,0.3184623718261719,37.868627259740606,-4.219009577066566,7.3226152216416995,62,21,0.0,49359,47036349380538,35,26.5,-845.7539672851562,0.7400000095367432,16,0.0,0.0,1.60424998E9,,,,0,,3,5.05
Raw,134782934,56282764000000,18,,-1335205571664645157,0.3184623718261719,37.868627259740606,-4.219009577066566,7.3226152216416995,62,43,0.0,16399,468240353387558,17,32.3,256.7085876464844,0.0399392768740654,16,0.0,0.0,1.56109798E9,,,,0,,5,4.9
Raw,134782934,56282764000000,18,,-1335205571664645157,0.3184623718261719,37.868627259740606,-4.219009577066566,7.3226152216416995,62,38,0.0,16399,468240297957690,53,23.3,2.3140759468078613,0.9179999828338623,16,0.0,0.0,1.56109798E9,,,,0,,5,4.9
Raw,134782934,56282764000000,18,,-1335205571664645157,0.3184623718261719,37.868627259740606,-4.219009577066566,7.3226152216416995,62,37,0.0,16399,468240354419180,11,37.9,-215.4129180908203,0.02925978973507881,16,0.0,0.0,1.56109798E9,,,,0,,5,4.9
Raw,134782934,56282764000000,18,,-1335205571664645157,0.3184623718261719,37.868627259740606,-4.219009577066566,7.3226152216416995,62,28,0.0,16399,468240353919691,31,27.5,-390.85797119140625,0.6739999651908875,16,0.0,0.0,1.56109798E9,,,,0,,5,4.9
Raw,134782935,56282764000000,18,,-1335205571664645157,0.3184623718261719,37.868627259740606,-4.219009577066566,7.3226152216416995,62,27,0.0,16399,468240341550088,46,24.5,-659.7996826171875,0.871999979019165,16,0.0,0.0,1.56109798E9,,,,0,,5,4.9
Raw,134782935,56282764000000,18,,-1335205571664645157,0.3184623718261719,37.868627259740606,-4.219009577066566,7.3226152216416995,62,25,0.0,16399,468240340024986,53,23.8,623.4274291992188,2.3565001487731934,16,0.0,0.0,1.56109798E9,,,,0,,5,4.9
Raw,134782935,56282764000000,18,,-1335205571664645157,0.3184623718261719,37.868627259740606,-4.219009577066566,7.3226152216416995,62,23,0.0,16399,468240352973653,53,23.7,362.2153015136719,0.9254999756813049,16,0.0,0.0,1.56109798E9,,,,0,,5,4.9
Raw,134782935,56282764000000,18,,-1335205571664645157,0.3184623718261719,37.868627259740606,-4.219009577066566,7.3226152216416995,62,13,0.0,16399,468240300594211,92,20.2,-180.27706909179688,2.6065001487731934,16,0.0,0.0,1.56109798E9,,,,0,,5,4.9
Raw,134782935,56282764000000,18,,-1335205571664645157,0.3184623718261719,37.868627259740606,-4.219009577066566,7.3226152216416995,62,11,0.0,16399,468240348878036,53,24.0,496.6333312988281,0.8614999651908875,16,0.0,0.0,1.56109798E9,,,,0,,5,4.9
Raw,134782935,56282764000000,18,,-1335205571664645157,0.3184623718261719,37.868627259740606,-4.219009577066566,7.3226152216416995,62,4,0.0,23567,468254333176795,31,27.5,538.8035888671875,0.6110873818397522,16,0.0,0.0,1.57542003E9,,,,0,,6,4.65
Raw,134782935,56282764000000,18,,-1335205571664645157,0.3184623718261719,37.868627259740606,-4.219009577066566,7.3226152216416995,62,9,0.0,23567,468254337811863,27,28.8,343.62890625,0.03864597529172897,16,0.0,0.0,1.57542003E9,,,,0,,6,4.65
Raw,134782935,56282764000000,18,,-1335205571664645157,0.3184623718261719,37.868627259740606,-4.219009577066566,7.3226152216416995,62,26,0.0,23567,468254347020809,53,23.3,-107.08181762695312,2.4431047439575195,16,0.0,0.0,1.57542003E9,,,,0,,6,4.65
Raw,134782935,56282764000000,18,,-1335205571664645157,0.3184623718261719,37.868627259740606,-4.219009577066566,7.3226152216416995,62,31,0.0,23567,468254346841971,14,35.0,-314.09033203125,0.03801468759775162,16,0.0,0.0,1.57542003E9,,,,0,,6,4.65
Raw,134782935,56282764000000,18,,-1335205571664645157,0.3184623718261719,37.868627259740606,-4.219009577066566,7.3226152216416995,62,25,0.0,81935,468254361141746,4,34.6,219.5830078125,0.04747423157095909,16,0.0,0.0,1.17645005E9,,,,0,,1,7.25
Raw,134782935,56282764000000,18,,-1335205571664645157,0.3184623718261719,37.868627259740606,-4.219009577066566,7.3226152216416995,62,32,0.0,81935,468254347770775,6,31.1,557.5416259765625,0.06758473813533783,16,0.0,0.0,1.17645005E9,,,,0,,1,7.25
Raw,134782935,56282764000000,18,,-1335205571664645157,0.3184623718261719,37.868627259740606,-4.219009577066566,7.3226152216416995,62,4,0.0,81935,468254333183161,14,22.6,538.8466186523438,1.031000018119812,16,0.0,0.0,1.17645005E9,,,,0,,6,7.25
Raw,134782935,56282764000000,18,,-1335205571664645157,0.3184623718261719,37.868627259740606,-4.219009577066566,7.3226152216416995,62,21,0.0,81935,468254338214712,16,21.6,453.32635498046875,1.118499994277954,16,0.0,0.0,1.17645005E9,,,,0,,6,7.25
Raw,134782935,56282764000000,18,,-1335205571664645157,0.3184623718261719,37.868627259740606,-4.219009577066566,7.3226152216416995,62,26,0.0,81935,468254347027215,4,35.0,-107.02375030517578,0.0564742349088192,16,0.0,0.0,1.17645005E9,,,,0,,6,7.25
