# 
# Header Description:
# 
# Version: 2.0.0.0 Platform: 11 Manufacturer: Xiaomi Model: 2107113SG
# 
# Raw,ElapsedRealtimeMillis,TimeNanos,LeapSecond,TimeUncertaintyNanos,FullBiasNanos,BiasNanos,BiasUncertaintyNanos,DriftNanosPerSecond,DriftUncertaintyNanosPerSecond,HardwareClockDiscontinuityCount,Svid,TimeOffsetNanos,State,ReceivedSvTimeNanos,ReceivedSvTimeUncertaintyNanos,Cn0DbHz,PseudorangeRateMetersPerSecond,PseudorangeRateUncertaintyMetersPerSecond,AccumulatedDeltaRangeState,AccumulatedDeltaRangeMeters,AccumulatedDeltaRangeUncertaintyMeters,CarrierFrequencyHz,CarrierCycles,CarrierPhase,CarrierPhaseUncertainty,MultipathIndicator,SnrInDb,ConstellationType,AgcDb
# 
# Fix,Provider,Latitude,Longitude,Altitude,Speed,Accuracy,(UTC)TimeInMs
# 
# Nav,Svid,Type,Status,MessageId,Sub-messageId,Data(Bytes)
# 
Fix,gps,46.24140305,6.02436552,486.13916015625,0,3.79009246826172,1655490028000
Fix,gps,46.24140224,6.02436331,486.279541015625,0,3.79009246826172,1655490029000
Raw,1033736698,1033314175000000,18,,-1338491932245550642,0.582496643066406,27.424664949649,-5.79539764744048,10.5619558666175,5,3,0,16399,498046348344520,24,29,408.943328857422,1.2492653131485,16,0,0,1575420032,,,,0,,1,-2.41
Raw,1033736698,1033314175000000,18,,-1338491932245550642,0.582496643066406,27.424664949649,-5.79539764744048,10.5619558666175,5,4,0,16399,498046352346030,21,29.8,148.509002685547,0.0695910453796387,16,0,0,1575420032,,,,0,,1,-2.41
Raw,1033736698,1033314175000000,18,,-1338491932245550642,0.582496643066406,27.424664949649,-5.79539764744048,10.5619558666175,5,6,0,16399,498046349163174,9,38.8,-394.485382080078,0.0353091955184937,16,0,0,1575420032,,,,0,,1,-2.41
Raw,1033736698,1033314175000000,18,,-1338491932245550642,0.582496643066406,27.424664949649,-5.79539764744048,10.5619558666175,5,9,0,16399,498046351725590,35,26.5,-275.098052978516,0.736999988555908,16,0,0,1575420032,,,,0,,1,-2.41
Raw,1033736698,1033314175000000,18,,-1338491932245550642,0.582496643066406,27.424664949649,-5.79539764744048,10.5619558666175,5,11,0,16399,498046338164042,17,32.2,-676.409729003906,0.0322943739593029,16,0,0,1575420032,,,,0,,1,-2.41
Raw,1033736698,1033314175000000,18,,-1338491932245550642,0.582496643066406,27.424664949649,-5.79539764744048,10.5619558666175,5,17,0,16399,498046343043336,61,22.3,517.379943847656,1.01900005340576,16,0,0,1575420032,,,,0,,1,-2.41
Raw,1033736698,1033314175000000,18,,-1338491932245550642,0.582496643066406,27.424664949649,-5.79539764744048,10.5619558666175,5,19,0,16399,498046345805314,12,36.1,403.911743164063,0.0434975735843182,16,0,0,1575420032,,,,0,,1,-2.41
Raw,1033736698,1033314175000000,18,,-1338491932245550642,0.582496643066406,27.424664949649,-5.79539764744048,10.5619558666175,5,31,0,16399,498046337785205,27,27.8,539.225708007813,0.667999982833862,16,0,0,1575420032,,,,0,,1,-2.41
Raw,1033736698,1033314175000000,18,,-1338491932245550642,0.582496643066406,27.424664949649,-5.79539764744048,10.5619558666175,5,12,0,49359,76828344100006,40,25.4,88.0411529541016,0.807500004768372,16,0,0,1601437440,,,,0,,3,3.24
Raw,1033736698,1033314175000000,18,,-1338491932245550642,0.582496643066406,27.424664949649,-5.79539764744048,10.5619558666175,5,5,0,49359,76828343860020,11,37.2,-604.424072265625,0.0455848872661591,16,0,0,1602562560,,,,0,,3,3.24
Raw,1033736698,1033314175000000,18,,-1338491932245550642,0.582496643066406,27.424664949649,-5.79539764744048,10.5619558666175,5,20,0,49359,76828346584259,46,24.3,-666.710388183594,0.864499986171722,16,0,0,1603124992,,,,0,,3,3.24
Raw,1033736698,1033314175000000,18,,-1338491932245550642,0.582496643066406,27.424664949649,-5.79539764744048,10.5619558666175,5,3,0,49359,76828352682489,27,28.9,410.390075683594,0.625500023365021,16,0,0,1604812544,,,,0,,3,3.24
Raw,1033736698,1033314175000000,18,,-1338491932245550642,0.582496643066406,27.424664949649,-5.79539764744048,10.5619558666175,5,4,0,49359,76828354804371,11,37.3,-184.087936401367,0.0290733519941568,16,0,0,1605374976,,,,0,,3,3.24
Raw,1033736698,1033314175000000,18,,-1338491932245550642,0.582496643066406,27.424664949649,-5.79539764744048,10.5619558666175,5,46,0,16399,498032337291517,35,26.7,-397.118499755859,0.727999985218048,16,0,0,1561097984,,,,0,,5,7.31
Raw,1033736698,1033314175000000,18,,-1338491932245550642,0.582496643066406,27.424664949649,-5.79539764744048,10.5619558666175,5,44,0,16399,498032343433084,9,39.5,-36.3937110900879,0.0443579033017159,16,0,0,1561097984,,,,0,,5,7.31
Raw,1033736698,1033314175000000,18,,-1338491932245550642,0.582496643066406,27.424664949649,-5.79539764744048,10.5619558666175,5,37,0,16399,498032334108133,31,28.1,105.448890686035,0.622500002384186,16,0,0,1561097984,,,,0,,5,7.31
Raw,1033736698,1033314175000000,18,,-1338491932245550642,0.582496643066406,27.424664949649,-5.79539764744048,10.5619558666175,5,35,0,16399,498032341849901,53,24,517.479248046875,0.871999979019165,16,0,0,1561097984,,,,0,,5,7.31
Raw,1033736698,1033314175000000,18,,-1338491932245550642,0.582496643066406,27.424664949649,-5.79539764744048,10.5619558666175,5,22,0,16399,498032344079634,10,38.8,-314.782989501953,0.043453224003315,16,0,0,1561097984,,,,0,,5,7.31
Raw,1033736698,1033314175000000,18,,-1338491932245550642,0.582496643066406,27.424664949649,-5.79539764744048,10.5619558666175,5,20,0,16399,498032335239385,27,29,511.900482177734,0.581000030040741,16,0,0,1561097984,,,,0,,5,7.31
Raw,1033736698,1033314175000000,18,,-1338491932245550642,0.582496643066406,27.424664949649,-5.79539764744048,10.5619558666175,5,19,0,16399,498032347266438,21,30.4,199.497482299805,0.0774955451488495,16,0,0,1561097984,,,,0,,5,7.31
Raw,1033736698,1033314175000000,18,,-1338491932245550642,0.582496643066406,27.424664949649,-5.79539764744048,10.5619558666175,5,16,0,16399,498032285020691,70,21.3,218.953826904297,1.7739999294281,16,0,0,1561097984,,,,0,,5,7.31
Raw,1033736698,1033314175000000,18,,-1338491932245550642,0.582496643066406,27.424664949649,-5.79539764744048,10.5619558666175,5,12,0,16399,498032338905284,13,35.9,-324.649627685547,0.0249689407646656,16,0,0,1561097984,,,,0,,5,7.31
Raw,1033736698,1033314175000000,18,,-1338491932245550642,0.582496643066406,27.424664949649,-5.79539764744048,10.5619558666175,5,9,0,16399,498032288762407,35,26.9,146.574142456055,0.741499960422516,16,0,0,1561097984,,,,0,,5,7.31
Raw,1033736698,1033314175000000,18,,-1338491932245550642,0.582496643066406,27.424664949649,-5.79539764744048,10.5619558666175,5,6,0,16399,498032287452280,61,22.4,202.755310058594,1.69700002670288,16,0,0,1561097984,,,,0,,5,7.31
Raw,1033736698,1033314175000000,18,,-1338491932245550642,0.582496643066406,27.424664949649,-5.79539764744048,10.5619558666175,5,3,0,23567,498046335286792,27,29,420.337127685547,1.21545338630676,16,0,0,1575420032,,,,0,,6,-6.57
Raw,1033736698,1033314175000000,18,,-1338491932245550642,0.582496643066406,27.424664949649,-5.79539764744048,10.5619558666175,5,7,0,23567,498046334454645,35,26.3,-440.694183349609,0.0435522310435772,16,0,0,1575420032,,,,0,,6,-6.57
Raw,1033736698,1033314175000000,18,,-1338491932245550642,0.582496643066406,27.424664949649,-5.79539764744048,10.5619558666175,5,8,0,23567,498046342499288,24,29.8,-15.0712461471558,1.22865390777588,16,0,0,1575420032,,,,0,,6,-6.57
Raw,1033736698,1033314175000000,18,,-1338491932245550642,0.582496643066406,27.424664949649,-5.79539764744048,10.5619558666175,5,13,0,23567,498046342620301,31,27.7,112.68928527832,0.64258736371994,16,0,0,1575420032,,,,0,,6,-6.57
Raw,1033736698,1033314175000000,18,,-1338491932245550642,0.582496643066406,27.424664949649,-5.79539764744048,10.5619558666175,5,15,0,23567,498046334904280,31,27.4,548.465881347656,0.041706383228302,16,0,0,1575420032,,,,0,,6,-6.57
Raw,1033736698,1033314175000000,18,,-1338491932245550642,0.582496643066406,27.424664949649,-5.79539764744048,10.5619558666175,5,26,0,23567,498046333722848,10,39,-425.341522216797,0.0328991040587425,16,0,0,1575420032,,,,0,,6,-6.57
Raw,1033736698,1033314175000000,18,,-1338491932245550642,0.582496643066406,27.424664949649,-5.79539764744048,10.5619558666175,5,1,0,81935,498046340150394,8,28.8,719.209411621094,0.0191850643604994,16,0,0,1176450048,,,,0,,1,0.35
Raw,1033736698,1033314175000000,18,,-1338491932245550642,0.582496643066406,27.424664949649,-5.79539764744048,10.5619558666175,5,3,0,81935,498046348352436,5,32.4,408.822509765625,0.0330453105270863,16,0,0,1176450048,,,,0,,1,0.35
Raw,1033736699,1033314175000000,18,,-1338491932245550642,0.582496643066406,27.424664949649,-5.79539764744048,10.5619558666175,5,4,0,81935,498046352353860,7,29.2,148.463958740234,0.0780085176229477,16,0,0,1176450048,,,,0,,1,0.35
Raw,1033736699,1033314175000000,18,,-1338491932245550642,0.582496643066406,27.424664949649,-5.79539764744048,10.5619558666175,5,6,0,81935,498046349171004,3,36.8,-394.487030029297,0.0262379162013531,16,0,0,1176450048,,,,0,,1,0.35
Raw,1033736699,1033314175000000,18,,-1338491932245550642,0.582496643066406,27.424664949649,-5.79539764744048,10.5619558666175,5,9,0,81935,498046351733386,7,29.1,-275.543518066406,0.0335954762995243,16,0,0,1176450048,,,,0,,1,0.35
Raw,1033736699,1033314175000000,18,,-1338491932245550642,0.582496643066406,27.424664949649,-5.79539764744048,10.5619558666175,5,11,0,81935,498046338171853,2,42.7,-676.422790527344,0.0341317020356655,16,0,0,1176450048,,,,0,,1,0.35
Raw,1033736699,1033314175000000,18,,-1338491932245550642,0.582496643066406,27.424664949649,-5.79539764744048,10.5619558666175,5,3,0,81935,498046335293156,9,26.4,420.257293701172,0.0528720170259476,16,0,0,1176450048,,,,0,,6,0.35
Raw,1033736699,1033314175000000,18,,-1338491932245550642,0.582496643066406,27.424664949649,-5.79539764744048,10.5619558666175,5,7,0,81935,498046334460997,6,31.8,-440.702026367188,0.0480847358703613,16,0,0,1176450048,,,,0,,6,0.35
Raw,1033736699,1033314175000000,18,,-1338491932245550642,0.582496643066406,27.424664949649,-5.79539764744048,10.5619558666175,5,8,0,81935,498046342505643,8,29,-15.1492605209351,2.3156373500824,16,0,0,1176450048,,,,0,,6,0.35
Raw,1033736699,1033314175000000,18,,-1338491932245550642,0.582496643066406,27.424664949649,-5.79539764744048,10.5619558666175,5,13,0,81935,498046342626685,8,27.3,112.637542724609,1.55362510681152,16,0,0,1176450048,,,,0,,6,0.35
Raw,1033736699,1033314175000000,18,,-1338491932245550642,0.582496643066406,27.424664949649,-5.79539764744048,10.5619558666175,5,15,0,81935,498046334910664,14,23.2,548.415466308594,0.92249995470047,16,0,0,1176450048,,,,0,,6,0.35
Raw,1033736699,1033314175000000,18,,-1338491932245550642,0.582496643066406,27.424664949649,-5.79539764744048,10.5619558666175,5,26,0,81935,498046333729232,5,33.4,-425.371459960938,0.0376147888600826,16,0,0,1176450048,,,,0,,6,0.35
Raw,1033736699,1033314175000000,18,,-1338491932245550642,0.582496643066406,27.424664949649,-5.79539764744048,10.5619558666175,5,19,0,16399,498032347272729,8,27.3,199.438583374023,0.0621569007635117,16,0,0,1176450048,,,,0,,5,0.35
Raw,1033736699,1033314175000000,18,,-1338491932245550642,0.582496643066406,27.424664949649,-5.79539764744048,10.5619558666175,5,20,0,16399,498032335245696,11,23.8,511.9833984375,1.71631968021393,16,0,0,1176450048,,,,0,,5,0.35
Raw,1033736699,1033314175000000,18,,-1338491932245550642,0.582496643066406,27.424664949649,-5.79539764744048,10.5619558666175,5,22,0,16399,498032344085918,4,35.3,-314.783355712891,0.0502414032816887,16,0,0,1176450048,,,,0,,5,0.35
Raw,1033736699,1033314175000000,18,,-1338491932245550642,0.582496643066406,27.424664949649,-5.79539764744048,10.5619558666175,5,35,0,16399,498032341856139,10,24.7,517.801391601563,0.0922475159168243,16,0,0,1176450048,,,,0,,5,0.35
Raw,1033736699,1033314175000000,18,,-1338491932245550642,0.582496643066406,27.424664949649,-5.79539764744048,10.5619558666175,5,44,0,16399,498032343439366,4,34.8,-36.3557739257813,0.0487414039671421,16,0,0,1176450048,,,,0,,5,0.35
Raw,1033736699,1033314175000000,18,,-1338491932245550642,0.582496643066406,27.424664949649,-5.79539764744048,10.5619558666175,5,6,0,16399,498046292515231,789,21.5,-12.9325227737427,4.96450042724609,16,0,0,1176450048,,,,0,,7,0.36
Raw,1033736699,1033314175000000,18,,-1338491932245550642,0.582496643066406,27.424664949649,-5.79539764744048,10.5619558666175,5,9,0,16399,498046292316649,80,20.8,96.3632202148438,1.87450003623962,16,0,0,1176450048,,,,0,,7,0.36
Raw,1033736699,1033314175000000,18,,-1338491932245550642,0.582496643066406,27.424664949649,-5.79539764744048,10.5619558666175,5,19,0,16399,498032347266318,6,32.7,199.458145141602,0.0853918194770813,16,0,0,1575420032,,,,0,,5,-6.57
Raw,1033736699,1033314175000000,18,,-1338491932245550642,0.582496643066406,27.424664949649,-5.79539764744048,10.5619558666175,5,20,0,16399,498032335239273,9,28.8,511.896057128906,1.21732234954834,16,0,0,1575420032,,,,0,,5,-6.57
Raw,1033736699,1033314175000000,18,,-1338491932245550642,0.582496643066406,27.424664949649,-5.79539764744048,10.5619558666175,5,22,0,16399,498032344079521,3,40.9,-314.781860351563,0.0591983385384083,16,0,0,1575420032,,,,0,,5,-6.57
Raw,1033736699,1033314175000000,18,,-1338491932245550642,0.582496643066406,27.424664949649,-5.79539764744048,10.5619558666175,5,35,0,16399,498032341849715,16,23,517.712951660156,1.19799995422363,16,0,0,1575420032,,,,0,,5,-6.57
Raw,1033736699,1033314175000000,18,,-1338491932245550642,0.582496643066406,27.424664949649,-5.79539764744048,10.5619558666175,5,36,0,16399,498032331504121,16,23.8,-590.985534667969,1.10799992084503,16,0,0,1575420032,,,,0,,5,-6.57
Raw,1033736699,1033314175000000,18,,-1338491932245550642,0.582496643066406,27.424664949649,-5.79539764744048,10.5619558666175,5,37,0,16399,498032334108005,8,29.2,105.589279174805,0.638433218002319,16,0,0,1575420032,,,,0,,5,-6.57
Raw,1033736699,1033314175000000,18,,-1338491932245550642,0.582496643066406,27.424664949649,-5.79539764744048,10.5619558666175,5,44,0,16399,498032343432992,3,40.6,-36.3964042663574,0.0576983392238617,16,0,0,1575420032,,,,0,,5,-6.57
Raw,1033737689,1033315175000000,18,,-1338491932245550654,0.631765365600586,28.6319191218354,-6.9205111385101,9.62709612189089,5,3,0,16399,498047348343135,24,28.9,409.717315673828,0.678384304046631,16,0,0,1575420032,,,,0,,1,-3.82
Raw,1033737689,1033315175000000,18,,-1338491932245550654,0.631765365600586,28.6319191218354,-6.9205111385101,9.62709612189089,5,4,0,16399,498047352345572,21,29.7,149.385269165039,0.0695910453796387,16,0,0,1575420032,,,,0,,1,-3.82
Raw,1033737689,1033315175000000,18,,-1338491932245550654,0.631765365600586,28.6319191218354,-6.9205111385101,9.62709612189089,5,6,0,16399,498047349164465,10,38.1,-393.595001220703,0.035899106413126,16,0,0,1575420032,,,,0,,1,-3.82
Raw,1033737689,1033315175000000,18,,-1338491932245550654,0.631765365600586,28.6319191218354,-6.9205111385101,9.62709612189089,5,9,0,16399,498047351726454,17,32.2,-274.661407470703,0.6136754155159,16,0,0,1575420032,,,,0,,1,-3.82
Raw,1033737689,1033315175000000,18,,-1338491932245550654,0.631765365600586,28.6319191218354,-6.9205111385101,9.62709612189089,5,11,0,16399,498047338166308,19,31.1,-675.627319335938,0.0422086752951145,16,0,0,1575420032,,,,0,,1,-3.82
Raw,1033737689,1033315175000000,18,,-1338491932245550654,0.631765365600586,28.6319191218354,-6.9205111385101,9.62709612189089,5,19,0,16399,498047345803969,10,37.7,404.820007324219,0.0418991073966026,16,0,0,1575420032,,,,0,,1,-3.82
Raw,1033737689,1033315175000000,18,,-1338491932245550654,0.631765365600586,28.6319191218354,-6.9205111385101,9.62709612189089,5,31,0,16399,498047337783449,24,28.8,540.197509765625,2.37752723693848,16,0,0,1575420032,,,,0,,1,-3.82
Raw,1033737689,1033315175000000,18,,-1338491932245550654,0.631765365600586,28.6319191218354,-6.9205111385101,9.62709612189089,5,5,0,49359,76829343862042,11,37.3,-603.582641601563,0.0455848872661591,16,0,0,1602562560,,,,0,,3,1.99
Raw,1033737689,1033315175000000,18,,-1338491932245550654,0.631765365600586,28.6319191218354,-6.9205111385101,9.62709612189089,5,20,0,49359,76829346586349,53,23.8,-665.953063964844,0.934499979019165,16,0,0,1603124992,,,,0,,3,1.99
Raw,1033737689,1033315175000000,18,,-1338491932245550654,0.631765365600586,28.6319191218354,-6.9205111385101,9.62709612189089,5,19,0,49359,76829355043774,92,19.6,170.600952148438,3.46900010108948,16,0,0,1603687552,,,,0,,3,1.99
Raw,1033737689,1033315175000000,18,,-1338491932245550654,0.631765365600586,28.6319191218354,-6.9205111385101,9.62709612189089,5,3,0,49359,76829352681150,21,30.5,411.004028320313,0.0687835067510605,16,0,0,1604812544,,,,0,,3,1.99
Raw,1033737689,1033315175000000,18,,-1338491932245550654,0.631765365600586,28.6319191218354,-6.9205111385101,9.62709612189089,5,4,0,49359,76829354804953,12,36.4,-183.220291137695,0.0298576727509499,16,0,0,1605374976,,,,0,,3,1.99
Raw,1033737689,1033315175000000,18,,-1338491932245550654,0.631765365600586,28.6319191218354,-6.9205111385101,9.62709612189089,5,46,0,16399,498033337292827,31,27.7,-396.839996337891,0.667999982833862,16,0,0,1561097984,,,,0,,5,6.26
Raw,1033737689,1033315175000000,18,,-1338491932245550654,0.631765365600586,28.6319191218354,-6.9205111385101,9.62709612189089,5,44,0,16399,498033343433200,10,39.1,-35.4873886108398,0.0449532233178616,16,0,0,1561097984,,,,0,,5,6.26
Raw,1033737689,1033315175000000,18,,-1338491932245550654,0.631765365600586,28.6319191218354,-6.9205111385101,9.62709612189089,5,36,0,16399,498033331506144,70,22.1,-591.568054199219,1.70300006866455,16,0,0,1561097984,,,,0,,5,6.26
Raw,1033737689,1033315175000000,18,,-1338491932245550654,0.631765365600586,28.6319191218354,-6.9205111385101,9.62709612189089,5,22,0,16399,498033344080681,9,39.3,-313.93408203125,0.0428579039871693,16,0,0,1561097984,,,,0,,5,6.26
Raw,1033737689,1033315175000000,18,,-1338491932245550654,0.631765365600586,28.6319191218354,-6.9205111385101,9.62709612189089,5,20,0,16399,498033335237681,31,27.6,512.716674804688,0.671000003814697,16,0,0,1561097984,,,,0,,5,6.26
Raw,1033737689,1033315175000000,18,,-1338491932245550654,0.631765365600586,28.6319191218354,-6.9205111385101,9.62709612189089,5,19,0,16399,498033347265767,19,31.9,200.329040527344,0.0589445382356644,16,0,0,1561097984,,,,0,,5,6.26
Raw,1033737689,1033315175000000,18,,-1338491932245550654,0.631765365600586,28.6319191218354,-6.9205111385101,9.62709612189089,5,12,0,16399,498033338906371,13,36.1,-323.762329101563,0.0249689407646656,16,0,0,1561097984,,,,0,,5,6.26
Raw,1033737689,1033315175000000,18,,-1338491932245550654,0.631765365600586,28.6319191218354,-6.9205111385101,9.62709612189089,5,9,0,16399,498033288761930,27,28.6,147.323104858398,0.631500005722046,16,0,0,1561097984,,,,0,,5,6.26
Raw,1033737689,1033315175000000,18,,-1338491932245550654,0.631765365600586,28.6319191218354,-6.9205111385101,9.62709612189089,5,3,0,23567,498047335285373,46,25.1,421.103271484375,1.78688633441925,16,0,0,1575420032,,,,0,,6,-7.98
Raw,1033737689,1033315175000000,18,,-1338491932245550654,0.631765365600586,28.6319191218354,-6.9205111385101,9.62709612189089,5,7,0,23567,498047334456102,80,20.5,-439.578369140625,1.1784999370575,16,0,0,1575420032,,,,0,,6,-7.98
Raw,1033737689,1033315175000000,18,,-1338491932245550654,0.631765365600586,28.6319191218354,-6.9205111385101,9.62709612189089,5,8,0,23567,498047342499315,21,31.1,-14.2853269577026,0.0776054859161377,16,0,0,1575420032,,,,0,,6,-7.98
Raw,1033737689,1033315175000000,18,,-1338491932245550654,0.631765365600586,28.6319191218354,-6.9205111385101,9.62709612189089,5,13,0,23567,498047342619924,17,32.7,113.524391174316,0.0709071531891823,16,0,0,1575420032,,,,0,,6,-7.98
Raw,1033737689,1033315175000000,18,,-1338491932245550654,0.631765365600586,28.6319191218354,-6.9205111385101,9.62709612189089,5,15,0,23567,498047334902456,40,25.6,549.273620605469,1.7627032995224,16,0,0,1575420032,,,,0,,6,-7.98
Raw,1033737689,1033315175000000,18,,-1338491932245550654,0.631765365600586,28.6319191218354,-6.9205111385101,9.62709612189089,5,26,0,23567,498047333724265,10,38.4,-424.552612304688,0.0328991040587425,16,0,0,1575420032,,,,0,,6,-7.98
Raw,1033737689,1033315175000000,18,,-1338491932245550654,0.631765365600586,28.6319191218354,-6.9205111385101,9.62709612189089,5,1,0,81935,498047340147996,8,27.1,720.059448242188,0.0216568969190121,16,0,0,1176450048,,,,0,,1,0.59
Raw,1033737689,1033315175000000,18,,-1338491932245550654,0.631765365600586,28.6319191218354,-6.9205111385101,9.62709612189089,5,3,0,81935,498047348351063,5,32.7,409.645568847656,0.0330453105270863,16,0,0,1176450048,,,,0,,1,0.59
Raw,1033737689,1033315175000000,18,,-1338491932245550654,0.631765365600586,28.6319191218354,-6.9205111385101,9.62709612189089,5,4,0,81935,498047352353368,6,30.3,149.342346191406,0.0575203448534012,16,0,0,1176450048,,,,0,,1,0.59
Raw,1033737689,1033315175000000,18,,-1338491932245550654,0.631765365600586,28.6319191218354,-6.9205111385101,9.62709612189089,5,6,0,81935,498047349172317,3,36.1,-393.654479980469,0.0262379162013531,16,0,0,1176450048,,,,0,,1,0.59
Raw,1033737689,1033315175000000,18,,-1338491932245550654,0.631765365600586,28.6319191218354,-6.9205111385101,9.62709612189089,5,9,0,81935,498047351734303,6,31.1,-274.711853027344,0.0435847342014313,16,0,0,1176450048,,,,0,,1,0.59
Raw,1033737689,1033315175000000,18,,-1338491932245550654,0.631765365600586,28.6319191218354,-6.9205111385101,9.62709612189089,5,11,0,81935,498047338174108,2,42.4,-675.663879394531,0.0341317020356655,16,0,0,1176450048,,,,0,,1,0.59
Raw,1033737689,1033315175000000,18,,-1338491932245550654,0.631765365600586,28.6319191218354,-6.9205111385101,9.62709612189089,5,3,0,81935,498047335291754,10,26,421.075469970703,0.0832475200295448,16,0,0,1176450048,,,,0,,6,0.59
Raw,1033737689,1033315175000000,18,,-1338491932245550654,0.631765365600586,28.6319191218354,-6.9205111385101,9.62709612189089,5,7,0,81935,498047334462464,5,33,-439.866912841797,0.0420453101396561,16,0,0,1176450048,,,,0,,6,0.59
Raw,1033737689,1033315175000000,18,,-1338491932245550654,0.631765365600586,28.6319191218354,-6.9205111385101,9.62709612189089,5,8,0,81935,498047342505687,5,32.9,-14.2571830749512,0.0240453109145165,16,0,0,1176450048,,,,0,,6,0.59
Raw,1033737689,1033315175000000,18,,-1338491932245550654,0.631765365600586,28.6319191218354,-6.9205111385101,9.62709612189089,5,13,0,81935,498047342626305,6,30.9,113.567604064941,0.0184136107563972,16,0,0,1176450048,,,,0,,6,0.59
Raw,1033737689,1033315175000000,18,,-1338491932245550654,0.631765365600586,28.6319191218354,-6.9205111385101,9.62709612189089,5,15,0,81935,498047334908825,11,24.7,549.210510253906,0.920335590839386,16,0,0,1176450048,,,,0,,6,0.59
Raw,1033737689,1033315175000000,18,,-1338491932245550654,0.631765365600586,28.6319191218354,-6.9205111385101,9.62709612189089,5,26,0,81935,498047333730649,5,33,-424.575378417969,0.0405453145503998,16,0,0,1176450048,,,,0,,6,0.59
Raw,1033737689,1033315175000000,18,,-1338491932245550654,0.631765365600586,28.6319191218354,-6.9205111385101,9.62709612189089,5,19,0,16399,498033347272061,8,27.5,200.32731628418,0.824169158935547,16,0,0,1176450048,,,,0,,5,0.59
Raw,1033737689,1033315175000000,18,,-1338491932245550654,0.631765365600586,28.6319191218354,-6.9205111385101,9.62709612189089,5,22,0,16399,498033344086966,3,35.8,-313.989593505859,0.0487379170954227,16,0,0,1176450048,,,,0,,5,0.59
Raw,1033737689,1033315175000000,18,,-1338491932245550654,0.631765365600586,28.6319191218354,-6.9205111385101,9.62709612189089,5,35,0,16399,498033341854416,9,25.6,518.659484863281,0.0618720166385174,16,0,0,1176450048,,,,0,,5,0.59
Raw,1033737689,1033315175000000,18,,-1338491932245550654,0.631765365600586,28.6319191218354,-6.9205111385101,9.62709612189089,5,44,0,16399,498033343439484,4,34.3,-35.5266990661621,0.0504742339253426,16,0,0,1176450048,,,,0,,5,0.59
Raw,1033737689,1033315175000000,18,,-1338491932245550654,0.631765365600586,28.6319191218354,-6.9205111385101,9.62709612189089,5,6,0,16399,498047292515255,919,20.9,-13.0344543457031,5.80450010299683,16,0,0,1176450048,,,,0,,7,0.58
Raw,1033737689,1033315175000000,18,,-1338491932245550654,0.631765365600586,28.6319191218354,-6.9205111385101,9.62709612189089,5,9,0,16399,498047292316331,70,22.1,95.8663101196289,1.00550007820129,16,0,0,1176450048,,,,0,,7,0.58
Raw,1033737689,1033315175000000,18,,-1338491932245550654,0.631765365600586,28.6319191218354,-6.9205111385101,9.62709612189089,5,19,0,16399,498033347265644,6,32.9,200.277740478516,0.0853918194770813,16,0,0,1575420032,,,,0,,5,-7.98
Raw,1033737689,1033315175000000,18,,-1338491932245550654,0.631765365600586,28.6319191218354,-6.9205111385101,9.62709612189089,5,20,0,16399,498033335237532,10,27.2,514.326782226563,4.66529130935669,16,0,0,1575420032,,,,0,,5,-7.98
Raw,1033737689,1033315175000000,18,,-1338491932245550654,0.631765365600586,28.6319191218354,-6.9205111385101,9.62709612189089,5,22,0,16399,498033344080570,2,41.3,-313.997406005859,0.0583991073071957,16,0,0,1575420032,,,,0,,5,-7.98
Raw,1033737689,1033315175000000,18,,-1338491932245550654,0.631765365600586,28.6319191218354,-6.9205111385101,9.62709612189089,5,37,0,16399,498033334107707,14,24.4,106.583488464355,1.11249995231628,16,0,0,1575420032,,,,0,,5,-7.98
Raw,1033737689,1033315175000000,18,,-1338491932245550654,0.631765365600586,28.6319191218354,-6.9205111385101,9.62709612189089,5,44,0,16399,498033343433098,3,40,-35.5569305419922,0.0576983392238617,16,0,0,1575420032,,,,0,,5,-7.98
Fix,gps,46.24140228,6.02436245,486.025817871094,0,3.79009246826172,1655490030000
Fix,gps,46.2414023,6.02436049,485.880004882813,0,3.79009246826172,1655490031000
Raw,1033738683,1033316175000000,18,,-1338491932245550656,0.962835311889649,28.4417383227265,-4.37379746874716,8.84859057039455,5,3,0,16399,498048348341735,46,24.4,409.835479736328,0.861499965190888,16,0,0,1575420032,,,,0,,1,-4.22
Raw,1033738683,1033316175000000,18,,-1338491932245550656,0.962835311889649,28.4417383227265,-4.37379746874716,8.84859057039455,5,4,0,16399,498048352345011,40,25.5,149.15217590332,0.795499980449677,16,0,0,1575420032,,,,0,,1,-4.22
Raw,1033738683,1033316175000000,18,,-1338491932245550656,0.962835311889649,28.4417383227265,-4.37379746874716,8.84859057039455,5,6,0,16399,498048349165776,11,36.7,-393.692291259766,0.0366983376443386,16,0,0,1575420032,,,,0,,1,-4.22
Raw,1033738683,1033316175000000,18,,-1338491932245550656,0.962835311889649,28.4417383227265,-4.37379746874716,8.84859057039455,5,9,0,16399,498048351727420,21,30.5,-274.611846923828,1.2128529548645,16,0,0,1575420032,,,,0,,1,-4.22
Raw,1033738683,1033316175000000,18,,-1338491932245550656,0.962835311889649,28.4417383227265,-4.37379746874716,8.84859057039455,5,11,0,16399,498048338168554,19,30.7,-675.783020019531,0.0422086752951145,16,0,0,1575420032,,,,0,,1,-4.22
Raw,1033738683,1033316175000000,18,,-1338491932245550656,0.962835311889649,28.4417383227265,-4.37379746874716,8.84859057039455,5,19,0,16399,498048345802617,12,36,404.741363525391,0.0434975735843182,16,0,0,1575420032,,,,0,,1,-4.22
Raw,1033738683,1033316175000000,18,,-1338491932245550656,0.962835311889649,28.4417383227265,-4.37379746874716,8.84859057039455,5,31,0,16399,498048337781605,27,27.8,539.872680664063,0.667999982833862,16,0,0,1575420032,,,,0,,1,-4.22
Raw,1033738683,1033316175000000,18,,-1338491932245550656,0.962835311889649,28.4417383227265,-4.37379746874716,8.84859057039455,5,12,0,49359,76830344099481,61,22.1,89.6885223388672,1.69250011444092,16,0,0,1601437440,,,,0,,3,1.47
Raw,1033738683,1033316175000000,18,,-1338491932245550656,0.962835311889649,28.4417383227265,-4.37379746874716,8.84859057039455,5,5,0,49359,76830343864076,13,35.8,-603.721130371094,0.0472498163580895,16,0,0,1602562560,,,,0,,3,1.47
Raw,1033738683,1033316175000000,18,,-1338491932245550656,0.962835311889649,28.4417383227265,-4.37379746874716,8.84859057039455,5,20,0,49359,76830346588750,46,24.4,-666.111938476563,0.864499986171722,16,0,0,1603124992,,,,0,,3,1.47
Raw,1033738683,1033316175000000,18,,-1338491932245550656,0.962835311889649,28.4417383227265,-4.37379746874716,8.84859057039455,5,3,0,49359,76830352679824,27,28.9,410.987854003906,0.625500023365021,16,0,0,1604812544,,,,0,,3,1.47
Raw,1033738683,1033316175000000,18,,-1338491932245550656,0.962835311889649,28.4417383227265,-4.37379746874716,8.84859057039455,5,4,0,49359,76830354805576,14,34.6,-183.303527832031,0.0318184718489647,16,0,0,1605374976,,,,0,,3,1.47
Raw,1033738683,1033316175000000,18,,-1338491932245550656,0.962835311889649,28.4417383227265,-4.37379746874716,8.84859057039455,5,46,0,16399,498034337294152,40,25.4,-396.811218261719,0.787999987602234,16,0,0,1561097984,,,,0,,5,5.47
Raw,1033738683,1033316175000000,18,,-1338491932245550656,0.962835311889649,28.4417383227265,-4.37379746874716,8.84859057039455,5,44,0,16399,498034343433315,11,37.4,-35.5635719299316,0.0457597896456718,16,0,0,1561097984,,,,0,,5,5.47
Raw,1033738683,1033316175000000,18,,-1338491932245550656,0.962835311889649,28.4417383227265,-4.37379746874716,8.84859057039455,5,37,0,16399,498034334107435,80,21.1,107.100425720215,1.78749990463257,16,0,0,1561097984,,,,0,,5,5.47
Raw,1033738683,1033316175000000,18,,-1338491932245550656,0.962835311889649,28.4417383227265,-4.37379746874716,8.84859057039455,5,36,0,16399,498034331508082,61,22.5,-590.953491210938,1.00699996948242,16,0,0,1561097984,,,,0,,5,5.47
Raw,1033738683,1033316175000000,18,,-1338491932245550656,0.962835311889649,28.4417383227265,-4.37379746874716,8.84859057039455,5,35,0,16399,498034341846407,61,23,518.765869140625,1.60800004005432,16,0,0,1561097984,,,,0,,5,5.47
Raw,1033738683,1033316175000000,18,,-1338491932245550656,0.962835311889649,28.4417383227265,-4.37379746874716,8.84859057039455,5,22,0,16399,498034344081732,11,37.7,-314.086975097656,0.0442597903311253,16,0,0,1561097984,,,,0,,5,5.47
Raw,1033738683,1033316175000000,18,,-1338491932245550656,0.962835311889649,28.4417383227265,-4.37379746874716,8.84859057039455,5,20,0,16399,498034335235984,35,26.9,512.553405761719,0.731000006198883,16,0,0,1561097984,,,,0,,5,5.47
Raw,1033738683,1033316175000000,18,,-1338491932245550656,0.962835311889649,28.4417383227265,-4.37379746874716,8.84859057039455,5,19,0,16399,498034347265101,27,28.8,200.518035888672,0.633000016212463,16,0,0,1561097984,,,,0,,5,5.47
Raw,1033738683,1033316175000000,18,,-1338491932245550656,0.962835311889649,28.4417383227265,-4.37379746874716,8.84859057039455,5,12,0,16399,498034338907456,14,35.1,-323.845977783203,0.026082769036293,16,0,0,1561097984,,,,0,,5,5.47
Raw,1033738683,1033316175000000,18,,-1338491932245550656,0.962835311889649,28.4417383227265,-4.37379746874716,8.84859057039455,5,9,0,16399,498034288761441,40,26.1,147.726379394531,0.741499960422516,16,0,0,1561097984,,,,0,,5,5.47
Raw,1033738683,1033316175000000,18,,-1338491932245550656,0.962835311889649,28.4417383227265,-4.37379746874716,8.84859057039455,5,3,0,23567,498048335283941,46,24.3,420.785064697266,0.645124316215515,16,0,0,1575420032,,,,0,,6,-8.41
Raw,1033738683,1033316175000000,18,,-1338491932245550656,0.962835311889649,28.4417383227265,-4.37379746874716,8.84859057039455,5,7,0,23567,498048334457602,61,22.3,-439.778198242188,1.00849997997284,16,0,0,1575420032,,,,0,,6,-8.41
Raw,1033738683,1033316175000000,18,,-1338491932245550656,0.962835311889649,28.4417383227265,-4.37379746874716,8.84859057039455,5,8,0,23567,498048342499375,31,28.1,-14.4385232925415,0.0717063844203949,16,0,0,1575420032,,,,0,,6,-8.41
Raw,1033738683,1033316175000000,18,,-1338491932245550656,0.962835311889649,28.4417383227265,-4.37379746874716,8.84859057039455,5,13,0,23567,498048342619539,21,30.4,113.440437316895,0.0776054859161377,16,0,0,1575420032,,,,0,,6,-8.41
Raw,1033738683,1033316175000000,18,,-1338491932245550656,0.962835311889649,28.4417383227265,-4.37379746874716,8.84859057039455,5,15,0,23567,498048334900566,46,24.3,549.156127929688,0.0727432817220688,16,0,0,1575420032,,,,0,,6,-8.41
Raw,1033738683,1033316175000000,18,,-1338491932245550656,0.962835311889649,28.4417383227265,-4.37379746874716,8.84859057039455,5,26,0,23567,498048333725684,11,38,-424.645660400391,0.0336983390152454,16,0,0,1575420032,,,,0,,6,-8.41
Raw,1033738683,1033316175000000,18,,-1338491932245550656,0.962835311889649,28.4417383227265,-4.37379746874716,8.84859057039455,5,1,0,81935,498048340145596,8,27.8,719.837341308594,0.0216568969190121,16,0,0,1176450048,,,,0,,1,-2.35
Raw,1033738683,1033316175000000,18,,-1338491932245550656,0.962835311889649,28.4417383227265,-4.37379746874716,8.84859057039455,5,3,0,81935,498048348349694,4,34.6,409.513214111328,0.0279742330312729,16,0,0,1176450048,,,,0,,1,-2.35
Raw,1033738683,1033316175000000,18,,-1338491932245550656,0.962835311889649,28.4417383227265,-4.37379746874716,8.84859057039455,5,4,0,81935,498048352352862,5,32.3,149.265487670898,0.803529441356659,16,0,0,1176450048,,,,0,,1,-2.35
Raw,1033738683,1033316175000000,18,,-1338491932245550656,0.962835311889649,28.4417383227265,-4.37379746874716,8.84859057039455,5,6,0,81935,498048349173631,3,36.8,-393.756195068359,0.0262379162013531,16,0,0,1176450048,,,,0,,1,-2.35
Raw,1033738683,1033316175000000,18,,-1338491932245550656,0.962835311889649,28.4417383227265,-4.37379746874716,8.84859057039455,5,9,0,81935,498048351735221,5,32.8,-274.758026123047,0.0375453121960163,16,0,0,1176450048,,,,0,,1,-2.35
Raw,1033738683,1033316175000000,18,,-1338491932245550656,0.962835311889649,28.4417383227265,-4.37379746874716,8.84859057039455,5,11,0,81935,498048338176360,2,42,-675.826477050781,0.0341317020356655,16,0,0,1176450048,,,,0,,1,-2.35
Raw,1033738683,1033316175000000,18,,-1338491932245550656,0.962835311889649,28.4417383227265,-4.37379746874716,8.84859057039455,5,3,0,81935,498048335290345,8,28.3,420.918060302734,0.0416850671172142,16,0,0,1176450048,,,,0,,6,-2.35
Raw,1033738683,1033316175000000,18,,-1338491932245550656,0.962835311889649,28.4417383227265,-4.37379746874716,8.84859057039455,5,7,0,81935,498048334463928,5,34.1,-440.010192871094,0.0391147881746292,16,0,0,1176450048,,,,0,,6,-2.35
Raw,1033738683,1033316175000000,18,,-1338491932245550656,0.962835311889649,28.4417383227265,-4.37379746874716,8.84859057039455,5,8,0,81935,498048342505732,5,32.6,-14.3894891738892,0.0240453109145165,16,0,0,1176450048,,,,0,,6,-2.35
Raw,1033738683,1033316175000000,18,,-1338491932245550656,0.962835311889649,28.4417383227265,-4.37379746874716,8.84859057039455,5,13,0,81935,498048342625927,6,31.7,113.448974609375,0.0300847347825766,16,0,0,1176450048,,,,0,,6,-2.35
Raw,1033738683,1033316175000000,18,,-1338491932245550656,0.962835311889649,28.4417383227265,-4.37379746874716,8.84859057039455,5,15,0,81935,498048334906984,10,25.6,549.059814453125,0.081747516989708,16,0,0,1176450048,,,,0,,6,-2.35
Raw,1033738683,1033316175000000,18,,-1338491932245550656,0.962835311889649,28.4417383227265,-4.37379746874716,8.84859057039455,5,26,0,81935,498048333732062,5,33.3,-424.687805175781,0.0376147888600826,16,0,0,1176450048,,,,0,,6,-2.35
Raw,1033738683,1033316175000000,18,,-1338491932245550656,0.962835311889649,28.4417383227265,-4.37379746874716,8.84859057039455,5,19,0,16399,498034347271388,6,29.7,200.136901855469,0.0559136122465134,16,0,0,1176450048,,,,0,,5,-2.35
Raw,1033738683,1033316175000000,18,,-1338491932245550656,0.962835311889649,28.4417383227265,-4.37379746874716,8.84859057039455,5,20,0,16399,498034335242272,14,22.1,512.382751464844,1.81400012969971,16,0,0,1176450048,,,,0,,5,-2.35
Raw,1033738683,1033316175000000,18,,-1338491932245550656,0.962835311889649,28.4417383227265,-4.37379746874716,8.84859057039455,5,22,0,16399,498034344088013,4,35.2,-314.120483398438,0.0502414032816887,16,0,0,1176450048,,,,0,,5,-2.35
Raw,1033738683,1033316175000000,18,,-1338491932245550656,0.962835311889649,28.4417383227265,-4.37379746874716,8.84859057039455,5,35,0,16399,498034341852681,8,27,518.541442871094,0.0531568974256516,16,0,0,1176450048,,,,0,,5,-2.35
Raw,1033738683,1033316175000000,18,,-1338491932245550656,0.962835311889649,28.4417383227265,-4.37379746874716,8.84859057039455,5,44,0,16399,498034343439601,4,35.1,-35.5725555419922,0.0487414039671421,16,0,0,1176450048,,,,0,,5,-2.35
Raw,1033738683,1033316175000000,18,,-1338491932245550656,0.962835311889649,28.4417383227265,-4.37379746874716,8.84859057039455,5,6,0,16399,498048292515277,938,20.7,-13.2510576248169,6.55450010299683,16,0,0,1176450048,,,,0,,7,-2.56
Raw,1033738683,1033316175000000,18,,-1338491932245550656,0.962835311889649,28.4417383227265,-4.37379746874716,8.84859057039455,5,19,0,16399,498034347264994,8,30.7,200.156005859375,0.070206381380558,16,0,0,1575420032,,,,0,,5,-8.41
Raw,1033738683,1033316175000000,18,,-1338491932245550656,0.962835311889649,28.4417383227265,-4.37379746874716,8.84859057039455,5,20,0,16399,498034335235862,10,27.8,512.146911621094,0.824000000953674,16,0,0,1575420032,,,,0,,5,-8.41
Raw,1033738683,1033316175000000,18,,-1338491932245550656,0.962835311889649,28.4417383227265,-4.37379746874716,8.84859057039455,5,22,0,16399,498034344081617,3,39.9,-314.092071533203,0.0599975734949112,16,0,0,1575420032,,,,0,,5,-8.41
Raw,1033738683,1033316175000000,18,,-1338491932245550656,0.962835311889649,28.4417383227265,-4.37379746874716,8.84859057039455,5,44,0,16399,498034343433215,3,39.3,-35.5956039428711,0.0584975741803646,16,0,0,1575420032,,,,0,,5,-8.41
Fix,gps,46.24140161,6.02435951,485.931640625,0,3.79009246826172,1655490032000
Raw,1033739683,1033317175000000,18,,-1338491932245550662,0.823556900024414,30.3430042549735,-4.97152303232152,9.71552873596404,5,3,0,16399,498049348340398,53,22.9,410.387359619141,1.01150000095367,16,0,0,1575420032,,,,0,,1,-3.82
Raw,1033739683,1033317175000000,18,,-1338491932245550662,0.823556900024414,30.3430042549735,-4.97152303232152,9.71552873596404,5,4,0,16399,498049352344553,70,21,150.408126831055,1.08550000190735,16,0,0,1575420032,,,,0,,1,-3.82
Raw,1033739683,1033317175000000,18,,-1338491932245550662,0.823556900024414,30.3430042549735,-4.97152303232152,9.71552873596404,5,6,0,16399,498049349167102,11,37.1,-393.156097412109,0.0366983376443386,16,0,0,1575420032,,,,0,,1,-3.82
Raw,1033739683,1033317175000000,18,,-1338491932245550662,0.823556900024414,30.3430042549735,-4.97152303232152,9.71552873596404,5,9,0,16399,498049351728308,24,29.3,-274.172698974609,0.103003293275833,16,0,0,1575420032,,,,0,,1,-3.82
Raw,1033739683,1033317175000000,18,,-1338491932245550662,0.823556900024414,30.3430042549735,-4.97152303232152,9.71552873596404,5,11,0,16399,498049338170813,21,30.4,-675.301391601563,0.0605910420417786,16,0,0,1575420032,,,,0,,1,-3.82
Raw,1033739683,1033317175000000,18,,-1338491932245550662,0.823556900024414,30.3430042549735,-4.97152303232152,9.71552873596404,5,19,0,16399,498049345801257,12,35.6,405.292358398438,0.0434975735843182,16,0,0,1575420032,,,,0,,1,-3.82
Raw,1033739683,1033317175000000,18,,-1338491932245550662,0.823556900024414,30.3430042549735,-4.97152303232152,9.71552873596404,5,31,0,16399,498049337779820,27,28.4,540.757507324219,0.618000030517578,16,0,0,1575420032,,,,0,,1,-3.82
Raw,1033739683,1033317175000000,18,,-1338491932245550662,0.823556900024414,30.3430042549735,-4.97152303232152,9.71552873596404,5,18,0,49359,76831348903612,122,17.3,754.102416992188,5.17850017547607,16,0,0,1600312448,,,,0,,3,1.61
Raw,1033739683,1033317175000000,18,,-1338491932245550662,0.823556900024414,30.3430042549735,-4.97152303232152,9.71552873596404,5,5,0,49359,76831343866018,13,35.1,-603.257751464844,0.0472498163580895,16,0,0,1602562560,,,,0,,3,1.61
Raw,1033739683,1033317175000000,18,,-1338491932245550662,0.823556900024414,30.3430042549735,-4.97152303232152,9.71552873596404,5,20,0,49359,76831346590895,61,22.9,-665.513549804688,1.01450002193451,16,0,0,1603124992,,,,0,,3,1.61
Raw,1033739683,1033317175000000,18,,-1338491932245550662,0.823556900024414,30.3430042549735,-4.97152303232152,9.71552873596404,5,3,0,49359,76831352678350,31,27.4,411.5576171875,0.675499975681305,16,0,0,1604812544,,,,0,,3,1.61
Raw,1033739683,1033317175000000,18,,-1338491932245550662,0.823556900024414,30.3430042549735,-4.97152303232152,9.71552873596404,5,4,0,49359,76831354806198,14,34.4,-182.774566650391,0.0318184718489647,16,0,0,1605374976,,,,0,,3,1.61
Raw,1033739683,1033317175000000,18,,-1338491932245550662,0.823556900024414,30.3430042549735,-4.97152303232152,9.71552873596404,5,46,0,16399,498035337295465,31,28.2,-395.975830078125,0.618000030517578,16,0,0,1561097984,,,,0,,5,5.88
Raw,1033739683,1033317175000000,18,,-1338491932245550662,0.823556900024414,30.3430042549735,-4.97152303232152,9.71552873596404,5,44,0,16399,498035343433437,11,37.4,-35.0045394897461,0.0457597896456718,16,0,0,1561097984,,,,0,,5,5.88
Raw,1033739683,1033317175000000,18,,-1338491932245550662,0.823556900024414,30.3430042549735,-4.97152303232152,9.71552873596404,5,35,0,16399,498035341844679,27,28.4,519.063537597656,0.642000019550324,16,0,0,1561097984,,,,0,,5,5.88
Raw,1033739683,1033317175000000,18,,-1338491932245550662,0.823556900024414,30.3430042549735,-4.97152303232152,9.71552873596404,5,22,0,16399,498035344082793,12,36.9,-313.584014892578,0.0450663566589356,16,0,0,1561097984,,,,0,,5,5.88
Raw,1033739683,1033317175000000,18,,-1338491932245550662,0.823556900024414,30.3430042549735,-4.97152303232152,9.71552873596404,5,20,0,16399,498035335234265,40,25.5,512.803039550781,0.791000008583069,16,0,0,1561097984,,,,0,,5,5.88
Raw,1033739683,1033317175000000,18,,-1338491932245550662,0.823556900024414,30.3430042549735,-4.97152303232152,9.71552873596404,5,19,0,16399,498035347264435,35,26.8,200.412399291992,0.742999970912933,16,0,0,1561097984,,,,0,,5,5.88
Raw,1033739683,1033317175000000,18,,-1338491932245550662,0.823556900024414,30.3430042549735,-4.97152303232152,9.71552873596404,5,12,0,16399,498035338908538,14,35.2,-323.314361572266,0.026082769036293,16,0,0,1561097984,,,,0,,5,5.88
Raw,1033739683,1033317175000000,18,,-1338491932245550662,0.823556900024414,30.3430042549735,-4.97152303232152,9.71552873596404,5,9,0,16399,498035288760966,46,24.7,148.696166992188,0.861499965190888,16,0,0,1561097984,,,,0,,5,5.88
Raw,1033739683,1033317175000000,18,,-1338491932245550662,0.823556900024414,30.3430042549735,-4.97152303232152,9.71552873596404,5,8,0,23567,498049342499441,31,28.1,-13.8235692977905,0.64258736371994,16,0,0,1575420032,,,,0,,6,-7.98
Raw,1033739683,1033317175000000,18,,-1338491932245550662,0.823556900024414,30.3430042549735,-4.97152303232152,9.71552873596404,5,13,0,23567,498049342619167,31,28,114.040031433105,0.0717063844203949,16,0,0,1575420032,,,,0,,6,-7.98
Raw,1033739683,1033317175000000,18,,-1338491932245550662,0.823556900024414,30.3430042549735,-4.97152303232152,9.71552873596404,5,26,0,23567,498049333727096,11,38.2,-424.142669677734,0.0336983390152454,16,0,0,1575420032,,,,0,,6,-7.98
Raw,1033739683,1033317175000000,18,,-1338491932245550662,0.823556900024414,30.3430042549735,-4.97152303232152,9.71552873596404,5,1,0,81935,498049340143188,8,28.3,720.3935546875,0.0191850643604994,16,0,0,1176450048,,,,0,,1,-1.3
Raw,1033739683,1033317175000000,18,,-1338491932245550662,0.823556900024414,30.3430042549735,-4.97152303232152,9.71552873596404,5,3,0,81935,498049348348325,3,36.2,410.057189941406,0.0247379168868065,16,0,0,1176450048,,,,0,,1,-1.3
Raw,1033739683,1033317175000000,18,,-1338491932245550662,0.823556900024414,30.3430042549735,-4.97152303232152,9.71552873596404,5,4,0,81935,498049352352361,5,33,149.867156982422,0.036114789545536,16,0,0,1176450048,,,,0,,1,-1.3
Raw,1033739683,1033317175000000,18,,-1338491932245550662,0.823556900024414,30.3430042549735,-4.97152303232152,9.71552873596404,5,6,0,81935,498049349174940,3,38,-393.158477783203,0.0239699482917786,16,0,0,1176450048,,,,0,,1,-1.3
Raw,1033739683,1033317175000000,18,,-1338491932245550662,0.823556900024414,30.3430042549735,-4.97152303232152,9.71552873596404,5,9,0,81935,498049351736134,4,34.4,-274.182373046875,0.0324742347002029,16,0,0,1176450048,,,,0,,1,-1.3
Raw,1033739683,1033317175000000,18,,-1338491932245550662,0.823556900024414,30.3430042549735,-4.97152303232152,9.71552873596404,5,11,0,81935,498049338178611,2,42.7,-675.312133789063,0.0341317020356655,16,0,0,1176450048,,,,0,,1,-1.3
Raw,1033739683,1033317175000000,18,,-1338491932245550662,0.823556900024414,30.3430042549735,-4.97152303232152,9.71552873596404,5,3,0,81935,498049335288939,6,30.9,421.464935302734,0.0379136130213738,16,0,0,1176450048,,,,0,,6,-1.3
Raw,1033739683,1033317175000000,18,,-1338491932245550662,0.823556900024414,30.3430042549735,-4.97152303232152,9.71552873596404,5,7,0,81935,498049334465393,4,34.5,-439.492004394531,0.0369742326438427,16,0,0,1176450048,,,,0,,6,-1.3
Raw,1033739683,1033317175000000,18,,-1338491932245550662,0.823556900024414,30.3430042549735,-4.97152303232152,9.71552873596404,5,8,0,81935,498049342505780,5,33.7,-13.8565111160278,0.0211147870868444,16,0,0,1176450048,,,,0,,6,-1.3
Raw,1033739683,1033317175000000,18,,-1338491932245550662,0.823556900024414,30.3430042549735,-4.97152303232152,9.71552873596404,5,13,0,81935,498049342625545,5,33.6,114.044479370117,0.0211147870868444,16,0,0,1176450048,,,,0,,6,-1.3
Raw,1033739683,1033317175000000,18,,-1338491932245550662,0.823556900024414,30.3430042549735,-4.97152303232152,9.71552873596404,5,15,0,81935,498049334905161,8,29.2,549.664428710938,0.804669141769409,16,0,0,1176450048,,,,0,,6,-1.3
Raw,1033739683,1033317175000000,18,,-1338491932245550662,0.823556900024414,30.3430042549735,-4.97152303232152,9.71552873596404,5,26,0,81935,498049333733476,4,34.3,-424.153747558594,0.0354742333292961,16,0,0,1176450048,,,,0,,6,-1.3
Raw,1033739683,1033317175000000,18,,-1338491932245550662,0.823556900024414,30.3430042549735,-4.97152303232152,9.71552873596404,5,19,0,16399,498035347270722,6,31.2,200.692199707031,0.0675847381353378,16,0,0,1176450048,,,,0,,5,-1.3
Raw,1033739683,1033317175000000,18,,-1338491932245550662,0.823556900024414,30.3430042549735,-4.97152303232152,9.71552873596404,5,20,0,16399,498035335240559,11,24.3,513.044006347656,0.951835632324219,16,0,0,1176450048,,,,0,,5,-1.3
Raw,1033739683,1033317175000000,18,,-1338491932245550662,0.823556900024414,30.3430042549735,-4.97152303232152,9.71552873596404,5,22,0,16399,498035344089059,3,36.5,-313.590667724609,0.0475402250885963,16,0,0,1176450048,,,,0,,5,-1.3
Raw,1033739683,1033317175000000,18,,-1338491932245550662,0.823556900024414,30.3430042549735,-4.97152303232152,9.71552873596404,5,35,0,16399,498035341850956,7,29,519.139770507813,0.0485954768955708,16,0,0,1176450048,,,,0,,5,-1.3
Raw,1033739683,1033317175000000,18,,-1338491932245550662,0.823556900024414,30.3430042549735,-4.97152303232152,9.71552873596404,5,44,0,16399,498035343439716,3,36.2,-34.9943008422852,0.0472379177808762,16,0,0,1176450048,,,,0,,5,-1.3
Raw,1033739683,1033317175000000,18,,-1338491932245550662,0.823556900024414,30.3430042549735,-4.97152303232152,9.71552873596404,5,6,0,16399,498049292515331,959,20.6,-13.161868095398,7.30450010299683,16,0,0,1176450048,,,,0,,7,-1.64
Raw,1033739683,1033317175000000,18,,-1338491932245550662,0.823556900024414,30.3430042549735,-4.97152303232152,9.71552873596404,5,9,0,16399,498049292315579,61,23.2,96.3632202148438,1.62450003623962,16,0,0,1176450048,,,,0,,7,-1.64
Raw,1033739683,1033317175000000,18,,-1338491932245550662,0.823556900024414,30.3430042549735,-4.97152303232152,9.71552873596404,5,19,0,16399,498035347264260,11,26.4,200.700210571289,0.727461636066437,16,0,0,1575420032,,,,0,,5,-7.98
Raw,1033739683,1033317175000000,18,,-1338491932245550662,0.823556900024414,30.3430042549735,-4.97152303232152,9.71552873596404,5,20,0,16399,498035335234142,9,28.5,513.008483886719,0.0755602717399597,16,0,0,1575420032,,,,0,,5,-7.98
Raw,1033739683,1033317175000000,18,,-1338491932245550662,0.823556900024414,30.3430042549735,-4.97152303232152,9.71552873596404,5,22,0,16399,498035344082657,3,39.5,-313.594635009766,0.0599975734949112,16,0,0,1575420032,,,,0,,5,-7.98
Raw,1033739683,1033317175000000,18,,-1338491932245550662,0.823556900024414,30.3430042549735,-4.97152303232152,9.71552873596404,5,35,0,16399,498035341844601,10,27.6,519.110046386719,0.663124263286591,16,0,0,1575420032,,,,0,,5,-7.98
Raw,1033739683,1033317175000000,18,,-1338491932245550662,0.823556900024414,30.3430042549735,-4.97152303232152,9.71552873596404,5,44,0,16399,498035343433332,3,39.3,-35.0132369995117,0.0584975741803646,16,0,0,1575420032,,,,0,,5,-7.98
Fix,gps,46.24140082,6.02435782,485.907287597656,0,3.79009246826172,1655490033000
Raw,1033740695,1033318175000000,18,,-1338491932245550664,0.737394332885742,30.860050173942,-3.37029204353778,10.2863997234643,5,3,0,16399,498050348339074,70,21.5,410.996276855469,1.09149992465973,16,0,0,1575420032,,,,0,,1,-3.87
Raw,1033740695,1033318175000000,18,,-1338491932245550664,0.737394332885742,30.860050173942,-3.37029204353778,10.2863997234643,5,6,0,16399,498050349168408,11,37.1,-393.266204833984,0.0366983376443386,16,0,0,1575420032,,,,0,,1,-3.87
Raw,1033740695,1033318175000000,18,,-1338491932245550664,0.737394332885742,30.860050173942,-3.37029204353778,10.2863997234643,5,9,0,16399,498050351729223,27,28.1,-274.441558837891,0.627000033855438,16,0,0,1575420032,,,,0,,1,-3.87
Raw,1033740695,1033318175000000,18,,-1338491932245550664,0.737394332885742,30.860050173942,-3.37029204353778,10.2863997234643,5,11,0,16399,498050338173067,19,31.3,-675.481750488281,0.0422086752951145,16,0,0,1575420032,,,,0,,1,-3.87
Raw,1033740695,1033318175000000,18,,-1338491932245550664,0.737394332885742,30.860050173942,-3.37029204353778,10.2863997234643,5,19,0,16399,498050345799893,12,35.6,405.203155517578,0.0434975735843182,16,0,0,1575420032,,,,0,,1,-3.87
Raw,1033740695,1033318175000000,18,,-1338491932245550664,0.737394332885742,30.860050173942,-3.37029204353778,10.2863997234643,5,31,0,16399,498050337777964,27,28,540.595764160156,0.618000030517578,16,0,0,1575420032,,,,0,,1,-3.87
Raw,1033740696,1033318175000000,18,,-1338491932245550664,0.737394332885742,30.860050173942,-3.37029204353778,10.2863997234643,5,5,0,49359,76832343868113,13,35.3,-603.405090332031,0.0472498163580895,16,0,0,1602562560,,,,0,,3,1.48
Raw,1033740696,1033318175000000,18,,-1338491932245550664,0.737394332885742,30.860050173942,-3.37029204353778,10.2863997234643,5,20,0,49359,76832346593116,46,24.1,-665.728576660156,0.864499986171722,16,0,0,1603124992,,,,0,,3,1.48
Raw,1033740696,1033318175000000,18,,-1338491932245550664,0.737394332885742,30.860050173942,-3.37029204353778,10.2863997234643,5,3,0,49359,76832352676975,31,27.7,411.193359375,0.675499975681305,16,0,0,1604812544,,,,0,,3,1.48
Raw,1033740696,1033318175000000,18,,-1338491932245550664,0.737394332885742,30.860050173942,-3.37029204353778,10.2863997234643,5,4,0,49359,76832354806790,14,34,-182.875411987305,0.0318184718489647,16,0,0,1605374976,,,,0,,3,1.48
Raw,1033740696,1033318175000000,18,,-1338491932245550664,0.737394332885742,30.860050173942,-3.37029204353778,10.2863997234643,5,46,0,16399,498036337296812,35,27.1,-396.340728759766,0.667999982833862,16,0,0,1561097984,,,,0,,5,5.31
Raw,1033740696,1033318175000000,18,,-1338491932245550664,0.737394332885742,30.860050173942,-3.37029204353778,10.2863997234643,5,44,0,16399,498036343433558,12,37,-35.0945205688477,0.0465663559734821,16,0,0,1561097984,,,,0,,5,5.31
Raw,1033740696,1033318175000000,18,,-1338491932245550664,0.737394332885742,30.860050173942,-3.37029204353778,10.2863997234643,5,36,0,16399,498036331511787,80,20.8,-589.609252929688,1.87300002574921,16,0,0,1561097984,,,,0,,5,5.31
Raw,1033740696,1033318175000000,18,,-1338491932245550664,0.737394332885742,30.860050173942,-3.37029204353778,10.2863997234643,5,35,0,16399,498036341842925,35,26.3,518.660278320313,0.751999974250794,16,0,0,1561097984,,,,0,,5,5.31
Raw,1033740696,1033318175000000,18,,-1338491932245550664,0.737394332885742,30.860050173942,-3.37029204353778,10.2863997234643,5,22,0,16399,498036344083832,13,36.1,-313.740966796875,0.0459689423441887,16,0,0,1561097984,,,,0,,5,5.31
Raw,1033740696,1033318175000000,18,,-1338491932245550664,0.737394332885742,30.860050173942,-3.37029204353778,10.2863997234643,5,20,0,16399,498036335232563,46,25,511.679595947266,0.791000008583069,16,0,0,1561097984,,,,0,,5,5.31
Raw,1033740696,1033318175000000,18,,-1338491932245550664,0.737394332885742,30.860050173942,-3.37029204353778,10.2863997234643,5,19,0,16399,498036347263757,40,25.4,200.364395141602,0.802999973297119,16,0,0,1561097984,,,,0,,5,5.31
Raw,1033740696,1033318175000000,18,,-1338491932245550664,0.737394332885742,30.860050173942,-3.37029204353778,10.2863997234643,5,12,0,16399,498036338909598,14,34.3,-323.396697998047,0.026082769036293,16,0,0,1561097984,,,,0,,5,5.31
Raw,1033740696,1033318175000000,18,,-1338491932245550664,0.737394332885742,30.860050173942,-3.37029204353778,10.2863997234643,5,9,0,16399,498036288760451,53,23.7,147.928009033203,0.93149995803833,16,0,0,1561097984,,,,0,,5,5.31
Raw,1033740696,1033318175000000,18,,-1338491932245550664,0.737394332885742,30.860050173942,-3.37029204353778,10.2863997234643,5,3,0,23567,498050335281089,92,20,421.348236083984,1.96000003814697,16,0,0,1575420032,,,,0,,6,-8.05
Raw,1033740696,1033318175000000,18,,-1338491932245550664,0.737394332885742,30.860050173942,-3.37029204353778,10.2863997234643,5,8,0,23567,498050342499472,35,27.2,-13.9461574554443,0.0735522359609604,16,0,0,1575420032,,,,0,,6,-8.05
Raw,1033740696,1033318175000000,18,,-1338491932245550664,0.737394332885742,30.860050173942,-3.37029204353778,10.2863997234643,5,13,0,23567,498050342618796,27,28.4,113.93229675293,0.0701459795236588,16,0,0,1575420032,,,,0,,6,-8.05
Raw,1033740696,1033318175000000,18,,-1338491932245550664,0.737394332885742,30.860050173942,-3.37029204353778,10.2863997234643,5,26,0,23567,498050333728512,11,38,-424.276031494141,0.0336983390152454,16,0,0,1575420032,,,,0,,6,-8.05
Raw,1033740696,1033318175000000,18,,-1338491932245550664,0.737394332885742,30.860050173942,-3.37029204353778,10.2863997234643,5,1,0,81935,498050340140782,8,27.1,720.19580078125,0.0216568969190121,16,0,0,1176450048,,,,0,,1,-1.5
Raw,1033740696,1033318175000000,18,,-1338491932245550664,0.737394332885742,30.860050173942,-3.37029204353778,10.2863997234643,5,3,0,81935,498050348346956,3,36.2,409.936157226563,0.0247379168868065,16,0,0,1176450048,,,,0,,1,-1.5
Raw,1033740696,1033318175000000,18,,-1338491932245550664,0.737394332885742,30.860050173942,-3.37029204353778,10.2863997234643,5,4,0,81935,498050352351861,5,33.7,149.747467041016,0.036114789545536,16,0,0,1176450048,,,,0,,1,-1.5
Raw,1033740696,1033318175000000,18,,-1338491932245550664,0.737394332885742,30.860050173942,-3.37029204353778,10.2863997234643,5,6,0,81935,498050349176253,3,38.2,-393.253540039063,0.0239699482917786,16,0,0,1176450048,,,,0,,1,-1.5
Raw,1033740696,1033318175000000,18,,-1338491932245550664,0.737394332885742,30.860050173942,-3.37029204353778,10.2863997234643,5,9,0,81935,498050351737048,5,33.8,-274.254577636719,0.0346147865056992,16,0,0,1176450048,,,,0,,1,-1.5
Raw,1033740696,1033318175000000,18,,-1338491932245550664,0.737394332885742,30.860050173942,-3.37029204353778,10.2863997234643,5,11,0,81935,498050338180865,2,42.2,-675.478149414063,0.0341317020356655,16,0,0,1176450048,,,,0,,1,-1.5
Raw,1033740696,1033318175000000,18,,-1338491932245550664,0.737394332885742,30.860050173942,-3.37029204353778,10.2863997234643,5,3,0,81935,498050335287534,7,29.5,421.291229248047,0.0395954772830009,16,0,0,1176450048,,,,0,,6,-1.5
Raw,1033740696,1033318175000000,18,,-1338491932245550664,0.737394332885742,30.860050173942,-3.37029204353778,10.2863997234643,5,7,0,81935,498050334466857,4,34.3,-439.652618408203,0.0369742326438427,16,0,0,1176450048,,,,0,,6,-1.5
Raw,1033740696,1033318175000000,18,,-1338491932245550664,0.737394332885742,30.860050173942,-3.37029204353778,10.2863997234643,5,8,0,81935,498050342505825,5,33,-14.0042114257813,0.0240453109145165,16,0,0,1176450048,,,,0,,6,-1.5
Raw,1033740696,1033318175000000,18,,-1338491932245550664,0.737394332885742,30.860050173942,-3.37029204353778,10.2863997234643,5,13,0,81935,498050342625169,5,33.1,113.931587219238,0.0240453109145165,16,0,0,1176450048,,,,0,,6,-1.5
Raw,1033740696,1033318175000000,18,,-1338491932245550664,0.737394332885742,30.860050173942,-3.37029204353778,10.2863997234643,5,15,0,81935,498050334903328,8,28.3,549.493835449219,0.0401850640773773,16,0,0,1176450048,,,,0,,6,-1.5
Raw,1033740696,1033318175000000,18,,-1338491932245550664,0.737394332885742,30.860050173942,-3.37029204353778,10.2863997234643,5,26,0,81935,498050333734892,5,34.2,-424.278411865234,0.0376147888600826,16,0,0,1176450048,,,,0,,6,-1.5
Raw,1033740696,1033318175000000,18,,-1338491932245550664,0.737394332885742,30.860050173942,-3.37029204353778,10.2863997234643,5,19,0,16399,498036347270045,5,31.6,200.533584594727,0.0615453124046326,16,0,0,1176450048,,,,0,,5,-1.5
Raw,1033740696,1033318175000000,18,,-1338491932245550664,0.737394332885742,30.860050173942,-3.37029204353778,10.2863997234643,5,20,0,16399,498036335238839,10,25,512.786010742188,0.113247521221638,16,0,0,1176450048,,,,0,,5,-1.5
Raw,1033740696,1033318175000000,18,,-1338491932245550664,0.737394332885742,30.860050173942,-3.37029204353778,10.2863997234643,5,22,0,16399,498036344090104,3,36.5,-313.721801757813,0.0475402250885963,16,0,0,1176450048,,,,0,,5,-1.5
Raw,1033740696,1033318175000000,18,,-1338491932245550664,0.737394332885742,30.860050173942,-3.37029204353778,10.2863997234643,5,35,0,16399,498036341849220,7,28.6,518.967895507813,0.0485954768955708,16,0,0,1176450048,,,,0,,5,-1.5
Raw,1033740696,1033318175000000,18,,-1338491932245550664,0.737394332885742,30.860050173942,-3.37029204353778,10.2863997234643,5,44,0,16399,498036343439833,3,36.1,-35.0871353149414,0.0472379177808762,16,0,0,1176450048,,,,0,,5,-1.5
Raw,1033740696,1033318175000000,18,,-1338491932245550664,0.737394332885742,30.860050173942,-3.37029204353778,10.2863997234643,5,6,0,16399,498050292515377,983,20.6,-13.3147649765015,8.05449962615967,16,0,0,1176450048,,,,0,,7,-1.79
Raw,1033740696,1033318175000000,18,,-1338491932245550664,0.737394332885742,30.860050173942,-3.37029204353778,10.2863997234643,5,9,0,16399,498050292315397,46,24.9,96.3759689331055,0.855499982833862,16,0,0,1176450048,,,,0,,7,-1.79
Raw,1033740696,1033318175000000,18,,-1338491932245550664,0.737394332885742,30.860050173942,-3.37029204353778,10.2863997234643,5,19,0,16399,498036347263689,11,26.7,200.574829101563,0.156580686569214,16,0,0,1575420032,,,,0,,5,-8.05
Raw,1033740696,1033318175000000,18,,-1338491932245550664,0.737394332885742,30.860050173942,-3.37029204353778,10.2863997234643,5,20,0,16399,498036335232443,9,28.2,512.812927246094,0.0755602717399597,16,0,0,1575420032,,,,0,,5,-8.05
Raw,1033740696,1033318175000000,18,,-1338491932245550664,0.737394332885742,30.860050173942,-3.37029204353778,10.2863997234643,5,22,0,16399,498036344083701,3,39.3,-313.723815917969,0.0599975734949112,16,0,0,1575420032,,,,0,,5,-8.05
Raw,1033740696,1033318175000000,18,,-1338491932245550664,0.737394332885742,30.860050173942,-3.37029204353778,10.2863997234643,5,35,0,16399,498036341842871,10,27.1,518.969360351563,0.0922432839870453,16,0,0,1575420032,,,,0,,5,-8.05
Raw,1033740696,1033318175000000,18,,-1338491932245550664,0.737394332885742,30.860050173942,-3.37029204353778,10.2863997234643,5,44,0,16399,498036343433462,3,39.4,-35.0738868713379,0.0584975741803646,16,0,0,1575420032,,,,0,,5,-8.05
Fix,gps,46.24140003,6.02435772,486.089721679688,0,3.79009246826172,1655490034000
Raw,1033741690,1033319175000000,18,,-1338491932245550668,0.505464553833008,30.7961418002378,-4.10054166945401,10.1471758350726,5,3,0,16399,498051348337711,40,24.9,409.293151855469,0.861499965190888,16,0,0,1575420032,,,,0,,1,-3.66
Raw,1033741690,1033319175000000,18,,-1338491932245550668,0.505464553833008,30.7961418002378,-4.10054166945401,10.1471758350726,5,4,0,16399,498051352343523,80,19.7,150.06559753418,1.96449995040894,16,0,0,1575420032,,,,0,,1,-3.66
Raw,1033741690,1033319175000000,18,,-1338491932245550668,0.505464553833008,30.7961418002378,-4.10054166945401,10.1471758350726,5,6,0,16399,498051349169716,10,37.6,-393.132232666016,0.035899106413126,16,0,0,1575420032,,,,0,,1,-3.66
Raw,1033741690,1033319175000000,18,,-1338491932245550668,0.505464553833008,30.7961418002378,-4.10054166945401,10.1471758350726,5,9,0,16399,498051351730169,21,29.9,-274.111724853516,0.641972064971924,16,0,0,1575420032,,,,0,,1,-3.66
Raw,1033741690,1033319175000000,18,,-1338491932245550668,0.505464553833008,30.7961418002378,-4.10054166945401,10.1471758350726,5,11,0,16399,498051338175296,19,31.3,-675.426452636719,0.0422086752951145,16,0,0,1575420032,,,,0,,1,-3.66
Raw,1033741690,1033319175000000,18,,-1338491932245550668,0.505464553833008,30.7961418002378,-4.10054166945401,10.1471758350726,5,19,0,16399,498051345798534,11,36.6,405.339813232422,0.0426983386278152,16,0,0,1575420032,,,,0,,1,-3.66
