# 
# Header Description:
# 
# Version: 2131623989 Platform: 11 Manufacturer: Xiaomi Model: 2107113SG
# 
# Raw,ElapsedRealtimeMillis,TimeNanos,LeapSecond,TimeUncertaintyNanos,FullBiasNanos,BiasNanos,BiasUncertaintyNanos,DriftNanosPerSecond,DriftUncertaintyNanosPerSecond,HardwareClockDiscontinuityCount,Svid,TimeOffsetNanos,State,ReceivedSvTimeNanos,ReceivedSvTimeUncertaintyNanos,Cn0DbHz,PseudorangeRateMetersPerSecond,PseudorangeRateUncertaintyMetersPerSecond,AccumulatedDeltaRangeState,AccumulatedDeltaRangeMeters,AccumulatedDeltaRangeUncertaintyMeters,CarrierFrequencyHz,CarrierCycles,CarrierPhase,CarrierPhaseUncertainty,MultipathIndicator,SnrInDb,ConstellationType,AgcDb
# 
# Fix,Provider,Latitude,Longitude,Altitude,Speed,Accuracy,(UTC)TimeInMs
# 
# Nav,Svid,Type,Status,MessageId,Sub-messageId,Data(Bytes)
# 
Raw,28022339,11066246000000,,,-9223372036854775808,,,-4.400322004129187,64.64434347843823,2,4,0.0,35,9,24,29.0,11.44616413116455,1.180999994277954,16,0.0,0.0,1.57542003E9,,,,0,,1,2.12
Raw,28022342,11066246000000,,,-9223372036854775808,,,-4.400322004129187,64.64434347843823,2,16,0.0,35,9,19,30.7,-633.6683959960938,1.0815000534057617,16,0.0,0.0,1.57542003E9,,,,0,,1,2.12
Raw,28022343,11066246000000,,,-9223372036854775808,,,-4.400322004129187,64.64434347843823,2,18,0.0,35,8,21,29.6,-473.83123779296875,0.9530000686645508,16,0.0,0.0,1.57542003E9,,,,0,,1,2.12
Raw,28022343,11066246000000,,,-9223372036854775808,,,-4.400322004129187,64.64434347843823,2,25,0.0,35,5,21,30.1,538.96875,0.9825000166893005,16,0.0,0.0,1.57542003E9,,,,0,,1,2.12
Raw,28022343,11066246000000,,,-9223372036854775808,,,-4.400322004129187,64.64434347843823,2,26,0.0,35,11,10,38.0,-422.8896179199219,0.843000054359436,16,0.0,0.0,1.57542003E9,,,,0,,1,2.12
Fix,gps,46.206871,6.156582,435.141052,0.000000,16.043623,1648646623804
Raw,28023821,11067246000000,,,-9223372036854775808,,,-1.615719178708207,14.185648381883297,2,2,0.0,16399,307440742229143,423,25.4,617.493408203125,1.059499979019165,16,0.0,0.0,1.57542003E9,,,,0,,1,2.55
Raw,28023821,11067246000000,,,-9223372036854775808,,,-1.615719178708207,14.185648381883297,2,4,0.0,16399,307440745034453,27,28.2,10.39954948425293,0.6210000514984131,16,0.0,0.0,1.57542003E9,,,,0,,1,2.55
Raw,28023822,11067246000000,,,-9223372036854775808,,,-1.615719178708207,14.185648381883297,2,5,0.0,16399,307440748671520,318,27.1,-270.4548645019531,0.9485000371932983,16,0.0,0.0,1.57542003E9,,,,0,,1,2.55
Raw,28023822,11067246000000,,,-9223372036854775808,,,-1.615719178708207,14.185648381883297,2,16,0.0,16399,307440748427797,19,31.4,-633.865478515625,0.04220867529511452,16,0.0,0.0,1.57542003E9,,,,0,,1,2.55
Raw,28023822,11067246000000,,,-9223372036854775808,,,-1.615719178708207,14.185648381883297,2,18,0.0,16399,307440757283700,24,29.1,-474.4501953125,0.6498843431472778,16,0.0,0.0,1.57542003E9,,,,0,,1,2.55
Raw,28023822,11067246000000,,,-9223372036854775808,,,-1.615719178708207,14.185648381883297,2,25,0.0,16399,307440754741403,27,27.8,537.9317016601562,0.6574999690055847,16,0.0,0.0,1.57542003E9,,,,0,,1,2.55
Raw,28023822,11067246000000,,,-9223372036854775808,,,-1.615719178708207,14.185648381883297,2,26,0.0,16399,307440757379921,10,38.2,-423.3726501464844,0.008899103850126266,16,0.0,0.0,1.57542003E9,,,,0,,1,2.55
Raw,28023823,11067246000000,,,-9223372036854775808,,,-1.615719178708207,14.185648381883297,2,29,0.0,16399,307440758999604,19,31.2,297.7810363769531,0.9164999723434448,16,0.0,0.0,1.57542003E9,,,,0,,1,2.55
Fix,gps,46.206962,6.156610,442.259277,0.000000,9.762513,1648646624000
Raw,28024818,11068246000000,18,,-1332670773582635542,0.05430412292480469,115.55399396456778,-4.68086176173323,10.197862132592654,2,2,0.0,16399,307441742226956,61,22.3,618.0928955078125,1.0505000352859497,16,0.0,0.0,1.57542003E9,,,,0,,1,2.41
Raw,28024819,11068246000000,18,,-1332670773582635542,0.05430412292480469,115.55399396456778,-4.68086176173323,10.197862132592654,2,4,0.0,16399,307441745034437,53,23.1,10.570813179016113,0.9359999895095825,16,0.0,0.0,1.57542003E9,,,,0,,1,2.41
Raw,28024820,11068246000000,18,,-1332670773582635542,0.05430412292480469,115.55399396456778,-4.68086176173323,10.197862132592654,2,5,0.0,16399,307441748672476,61,22.5,-271.0733337402344,1.0414999723434448,16,0.0,0.0,1.57542003E9,,,,0,,1,2.41
Raw,28024820,11068246000000,18,,-1332670773582635542,0.05430412292480469,115.55399396456778,-4.68086176173323,10.197862132592654,2,16,0.0,16399,307441748429874,19,30.9,-634.2892456054688,0.6280896663665771,16,0.0,0.0,1.57542003E9,,,,0,,1,2.41
Raw,28024820,11068246000000,18,,-1332670773582635542,0.05430412292480469,115.55399396456778,-4.68086176173323,10.197862132592654,2,18,0.0,16399,307441757285280,31,26.6,-474.9920349121094,0.7129999995231628,16,0.0,0.0,1.57542003E9,,,,0,,1,2.41
Raw,28024820,11068246000000,18,,-1332670773582635542,0.05430412292480469,115.55399396456778,-4.68086176173323,10.197862132592654,2,20,0.0,16399,307441747916830,423,25.6,48.12527084350586,1.0069999694824219,16,0.0,0.0,1.57542003E9,,,,0,,1,2.41
Raw,28024820,11068246000000,18,,-1332670773582635542,0.05430412292480469,115.55399396456778,-4.68086176173323,10.197862132592654,2,25,0.0,16399,307441754739559,27,28.5,537.5606079101562,0.6225000023841858,16,0.0,0.0,1.57542003E9,,,,0,,1,2.41
Raw,28024820,11068246000000,18,,-1332670773582635542,0.05430412292480469,115.55399396456778,-4.68086176173323,10.197862132592654,2,26,0.0,16399,307441757381355,9,39.5,-423.7765808105469,0.023309193551540375,16,0.0,0.0,1.57542003E9,,,,0,,1,2.41
Raw,28024820,11068246000000,18,,-1332670773582635542,0.05430412292480469,115.55399396456778,-4.68086176173323,10.197862132592654,2,29,0.0,16399,307441758998632,24,29.5,297.6979064941406,0.07750329375267029,16,0.0,0.0,1.57542003E9,,,,0,,1,2.41
Raw,28024820,11068246000000,18,,-1332670773582635542,0.05430412292480469,115.55399396456778,-4.68086176173323,10.197862132592654,2,31,0.0,16399,307441757700307,17,32.1,272.1009216308594,1.1180000305175781,16,0.0,0.0,1.57542003E9,,,,0,,1,2.41
Raw,28024820,11068246000000,18,,-1332670773582635542,0.05430412292480469,115.55399396456778,-4.68086176173323,10.197862132592654,2,12,0.0,49359,59023763133137,423,25.4,338.49884033203125,1.0010000467300415,16,0.0,0.0,1.60143744E9,,,,0,,3,1.72
Raw,28024821,11068246000000,18,,-1332670773582635542,0.05430412292480469,115.55399396456778,-4.68086176173323,10.197862132592654,2,5,0.0,49359,59023748678675,423,25.7,-28.32250213623047,1.0084999799728394,16,0.0,0.0,1.60256256E9,,,,0,,3,1.72
Raw,28024821,11068246000000,18,,-1332670773582635542,0.05430412292480469,115.55399396456778,-4.68086176173323,10.197862132592654,2,24,0.0,49359,59023748072111,423,25.2,-787.6278686523438,0.9785000085830688,16,0.0,0.0,1.60312499E9,,,,0,,3,1.72
Raw,28024821,11068246000000,18,,-1332670773582635542,0.05430412292480469,115.55399396456778,-4.68086176173323,10.197862132592654,2,23,0.0,49359,59023760485190,487,24.5,-531.8614501953125,1.0264999866485596,16,0.0,0.0,1.60368755E9,,,,0,,3,1.72
Raw,28024821,11068246000000,18,,-1332670773582635542,0.05430412292480469,115.55399396456778,-4.68086176173323,10.197862132592654,2,21,0.0,49359,59023751391116,318,27.3,762.5482788085938,0.8629999756813049,16,0.0,0.0,1.60424998E9,,,,0,,3,1.72
Raw,28024821,11068246000000,18,,-1332670773582635542,0.05430412292480469,115.55399396456778,-4.68086176173323,10.197862132592654,2,8,0.0,16399,307427699463243,239,29.4,108.2814712524414,0.6949999928474426,16,0.0,0.0,1.56109798E9,,,,0,,5,2.88
Raw,28024821,11068246000000,18,,-1332670773582635542,0.05430412292480469,115.55399396456778,-4.68086176173323,10.197862132592654,2,1,0.0,23567,307441744711231,276,28.6,380.1877136230469,0.8805000185966492,16,0.0,0.0,1.57542003E9,,,,0,,6,2.43
Raw,28024821,11068246000000,18,,-1332670773582635542,0.05430412292480469,115.55399396456778,-4.68086176173323,10.197862132592654,2,5,0.0,23567,307441733993971,423,25.3,292.0817565917969,1.0520000457763672,16,0.0,0.0,1.57542003E9,,,,0,,6,2.43
Raw,28024821,11068246000000,18,,-1332670773582635542,0.05430412292480469,115.55399396456778,-4.68086176173323,10.197862132592654,2,24,0.0,23567,307441741420771,11,37.8,-459.4831237792969,0.5720000267028809,16,0.0,0.0,1.57542003E9,,,,0,,6,2.43
Raw,28024821,11068246000000,18,,-1332670773582635542,0.05430412292480469,115.55399396456778,-4.68086176173323,10.197862132592654,2,26,0.0,23567,307441744867547,21,31.2,314.3651428222656,0.7604999542236328,16,0.0,0.0,1.57542003E9,,,,0,,6,2.43
Raw,28024821,11068246000000,18,,-1332670773582635542,0.05430412292480469,115.55399396456778,-4.68086176173323,10.197862132592654,2,31,0.0,23567,307441750340758,19,31.8,-103.56732940673828,0.7634999752044678,16,0.0,0.0,1.57542003E9,,,,0,,6,2.43
Raw,28025015,11068846000000,18,,-1332670773582635528,0.1508026123046875,99.90732360165566,-5.752202478352498,6.858344196577331,2,4,0.0,16399,307442345034350,31,26.7,10.532754898071289,1.0460000038146973,16,0.0,0.0,1.57542003E9,,,,0,,1,2.03
Raw,28025015,11068846000000,18,,-1332670773582635528,0.1508026123046875,99.90732360165566,-5.752202478352498,6.858344196577331,2,5,0.0,16399,307442348672875,46,23.8,-271.3302307128906,1.2315000295639038,16,0.0,0.0,1.57542003E9,,,,0,,1,2.03
Raw,28025016,11068846000000,18,,-1332670773582635528,0.1508026123046875,99.90732360165566,-5.752202478352498,6.858344196577331,2,16,0.0,16399,307442348431141,24,29.1,-634.0680541992188,0.8914999961853027,16,0.0,0.0,1.57542003E9,,,,0,,1,2.03
Raw,28025016,11068846000000,18,,-1332670773582635528,0.1508026123046875,99.90732360165566,-5.752202478352498,6.858344196577331,2,18,0.0,16399,307442357286207,27,27.9,-473.9739685058594,0.9679999947547913,16,0.0,0.0,1.57542003E9,,,,0,,1,2.03
Raw,28025016,11068846000000,18,,-1332670773582635528,0.1508026123046875,99.90732360165566,-5.752202478352498,6.858344196577331,2,20,0.0,16399,307442347916737,40,24.6,49.181400299072266,1.2829999923706055,16,0.0,0.0,1.57542003E9,,,,0,,1,2.03
Raw,28025016,11068846000000,18,,-1332670773582635528,0.1508026123046875,99.90732360165566,-5.752202478352498,6.858344196577331,2,25,0.0,16399,307442354738496,27,28.0,538.3788452148438,0.9225000143051147,16,0.0,0.0,1.57542003E9,,,,0,,1,2.03
Raw,28025016,11068846000000,18,,-1332670773582635528,0.1508026123046875,99.90732360165566,-5.752202478352498,6.858344196577331,2,26,0.0,16399,307442357382185,12,36.0,-423.2987365722656,0.6380000114440918,16,0.0,0.0,1.57542003E9,,,,0,,1,2.03
Raw,28025016,11068846000000,18,,-1332670773582635528,0.1508026123046875,99.90732360165566,-5.752202478352498,6.858344196577331,2,29,0.0,16399,307442358997969,27,28.3,298.1426086425781,0.9165000319480896,16,0.0,0.0,1.57542003E9,,,,0,,1,2.03
Raw,28025017,11068846000000,18,,-1332670773582635528,0.1508026123046875,99.90732360165566,-5.752202478352498,6.858344196577331,2,31,0.0,16399,307442357699778,19,31.2,272.1865539550781,0.7979999780654907,16,0.0,0.0,1.57542003E9,,,,0,,1,2.03
Raw,28025017,11068846000000,18,,-1332670773582635528,0.1508026123046875,99.90732360165566,-5.752202478352498,6.858344196577331,2,12,0.0,49359,59024363132588,31,27.3,337.8810729980469,1.1089999675750732,16,0.0,0.0,1.60143744E9,,,,0,,3,1.6
Raw,28025017,11068846000000,18,,-1332670773582635528,0.1508026123046875,99.90732360165566,-5.752202478352498,6.858344196577331,2,21,0.0,49359,59024351389512,31,27.3,762.96875,1.097000002861023,16,0.0,0.0,1.60424998E9,,,,0,,3,1.6
Raw,28025018,11068846000000,18,,-1332670773582635528,0.1508026123046875,99.90732360165566,-5.752202478352498,6.858344196577331,2,45,0.0,16399,307428354534603,11,37.8,-259.27252197265625,0.7325000166893005,16,0.0,0.0,1.56109798E9,,,,0,,5,2.84
Raw,28025018,11068846000000,18,,-1332670773582635528,0.1508026123046875,99.90732360165566,-5.752202478352498,6.858344196577331,2,38,0.0,16399,307428295848910,40,25.9,160.49700927734375,1.2109999656677246,16,0.0,0.0,1.56109798E9,,,,0,,5,2.84
Raw,28025018,11068846000000,18,,-1332670773582635528,0.1508026123046875,99.90732360165566,-5.752202478352498,6.858344196577331,2,30,0.0,16399,307428355819219,19,31.6,244.72552490234375,0.9210000038146973,16,0.0,0.0,1.56109798E9,,,,0,,5,2.84
Raw,28025018,11068846000000,18,,-1332670773582635528,0.1508026123046875,99.90732360165566,-5.752202478352498,6.858344196577331,2,29,0.0,16399,307428354289597,19,32.0,-357.327880859375,0.8825000524520874,16,0.0,0.0,1.56109798E9,,,,0,,5,2.84
Raw,28025018,11068846000000,18,,-1332670773582635528,0.1508026123046875,99.90732360165566,-5.752202478352498,6.858344196577331,2,26,0.0,16399,307428340839384,35,26.3,-615.7554321289062,1.1735000610351562,16,0.0,0.0,1.56109798E9,,,,0,,5,2.84
Raw,28025018,11068846000000,18,,-1332670773582635528,0.1508026123046875,99.90732360165566,-5.752202478352498,6.858344196577331,2,13,0.0,16399,307428301474042,24,29.9,-1.1234309673309326,1.0220000743865967,16,0.0,0.0,1.56109798E9,,,,0,,5,2.84
Raw,28025018,11068846000000,18,,-1332670773582635528,0.1508026123046875,99.90732360165566,-5.752202478352498,6.858344196577331,2,8,0.0,16399,307428299463041,21,30.5,108.75196075439453,0.9450000524520874,16,0.0,0.0,1.56109798E9,,,,0,,5,2.84
Raw,28025019,11068846000000,18,,-1332670773582635528,0.1508026123046875,99.90732360165566,-5.752202478352498,6.858344196577331,2,1,0.0,23567,307442344710478,31,28.2,380.58734130859375,0.9945000410079956,16,0.0,0.0,1.57542003E9,,,,0,,6,2.05
Raw,28025019,11068846000000,18,,-1332670773582635528,0.1508026123046875,99.90732360165566,-5.752202478352498,6.858344196577331,2,24,0.0,23567,307442341421689,13,35.8,-458.9027099609375,0.562999963760376,16,0.0,0.0,1.57542003E9,,,,0,,6,2.05
Raw,28025019,11068846000000,18,,-1332670773582635528,0.1508026123046875,99.90732360165566,-5.752202478352498,6.858344196577331,2,26,0.0,23567,307442344866921,19,31.6,314.93603515625,0.6944999694824219,16,0.0,0.0,1.57542003E9,,,,0,,6,2.05
Raw,28025019,11068846000000,18,,-1332670773582635528,0.1508026123046875,99.90732360165566,-5.752202478352498,6.858344196577331,2,31,0.0,23567,307442350340977,19,31.5,-102.99645233154297,0.6915000081062317,16,0.0,0.0,1.57542003E9,,,,0,,6,2.05
Raw,28025019,11068846000000,18,,-1332670773582635528,0.1508026123046875,99.90732360165566,-5.752202478352498,6.858344196577331,2,33,0.0,23567,307442349392672,31,27.9,-205.38397216796875,1.0429999828338623,16,0.0,0.0,1.57542003E9,,,,0,,6,2.05
Raw,28025019,11068846000000,18,,-1332670773582635528,0.1508026123046875,99.90732360165566,-5.752202478352498,6.858344196577331,2,18,0.0,81935,307442357294068,6,31.8,-474.5025634765625,0.902999997138977,16,0.0,0.0,1.17645005E9,,,,0,,1,0.0
Raw,28025020,11068846000000,18,,-1332670773582635528,0.1508026123046875,99.90732360165566,-5.752202478352498,6.858344196577331,2,25,0.0,81935,307442354746333,6,30.5,537.992919921875,0.9375,16,0.0,0.0,1.17645005E9,,,,0,,1,0.0
Raw,28025020,11068846000000,18,,-1332670773582635528,0.1508026123046875,99.90732360165566,-5.752202478352498,6.858344196577331,2,26,0.0,81935,307442357390040,4,34.8,-423.3203430175781,0.7929999828338623,16,0.0,0.0,1.17645005E9,,,,0,,1,0.0
Raw,28025020,11068846000000,18,,-1332670773582635528,0.1508026123046875,99.90732360165566,-5.752202478352498,6.858344196577331,2,1,0.0,81935,307442344716839,7,29.7,380.5856628417969,1.002500057220459,16,0.0,0.0,1.17645005E9,,,,0,,6,0.0
Raw,28025020,11068846000000,18,,-1332670773582635528,0.1508026123046875,99.90732360165566,-5.752202478352498,6.858344196577331,2,24,0.0,81935,307442341428055,6,32.0,-458.83062744140625,0.8870000243186951,16,0.0,0.0,1.17645005E9,,,,0,,6,0.0
Raw,28025020,11068846000000,18,,-1332670773582635528,0.1508026123046875,99.90732360165566,-5.752202478352498,6.858344196577331,2,26,0.0,81935,307442344873281,5,33.5,314.9419860839844,0.8425000309944153,16,0.0,0.0,1.17645005E9,,,,0,,6,0.0
Raw,28025020,11068846000000,18,,-1332670773582635528,0.1508026123046875,99.90732360165566,-5.752202478352498,6.858344196577331,2,31,0.0,81935,307442350347339,5,33.4,-103.12890625,0.8335000276565552,16,0.0,0.0,1.17645005E9,,,,0,,6,0.0
Raw,28025020,11068846000000,18,,-1332670773582635528,0.1508026123046875,99.90732360165566,-5.752202478352498,6.858344196577331,2,33,0.0,81935,307442349399050,7,30.0,-205.11109924316406,0.9450000524520874,16,0.0,0.0,1.17645005E9,,,,0,,6,0.0
Raw,28025021,11068846000000,18,,-1332670773582635528,0.1508026123046875,99.90732360165566,-5.752202478352498,6.858344196577331,2,29,0.0,16399,307428354295859,6,30.5,-357.2306823730469,0.9674999713897705,16,0.0,0.0,1.17645005E9,,,,0,,5,0.0
Raw,28025021,11068846000000,18,,-1332670773582635528,0.1508026123046875,99.90732360165566,-5.752202478352498,6.858344196577331,2,30,0.0,16399,307428355825493,5,32.6,244.90248107910156,0.8960000276565552,16,0.0,0.0,1.17645005E9,,,,0,,5,0.0
Raw,28025021,11068846000000,18,,-1332670773582635528,0.1508026123046875,99.90732360165566,-5.752202478352498,6.858344196577331,2,36,0.0,16399,307428353284207,5,31.9,355.8418884277344,0.9390000104904175,16,0.0,0.0,1.17645005E9,,,,0,,5,0.0
Raw,28025022,11068846000000,18,,-1332670773582635528,0.1508026123046875,99.90732360165566,-5.752202478352498,6.858344196577331,2,45,0.0,16399,307428354540850,3,37.3,-259.6315612792969,0.7175000309944153,16,0.0,0.0,1.17645005E9,,,,0,,5,0.0
Fix,gps,46.206906,6.156592,425.685181,0.000000,4.459301,1648646626000
Raw,28026021,11069846000000,18,,-1332670773582635537,0.6571407318115234,66.45560642937198,-4.883907567190873,12.817064269884817,2,2,0.0,16399,307443342223781,80,20.1,616.9320678710938,1.559499979019165,16,0.0,0.0,1.57542003E9,,,,0,,1,2.22
Raw,28026022,11069846000000,18,,-1332670773582635537,0.6571407318115234,66.45560642937198,-4.883907567190873,12.817064269884817,2,4,0.0,16399,307443345034403,31,27.1,9.914300918579102,0.6859999895095825,16,0.0,0.0,1.57542003E9,,,,0,,1,2.22
Raw,28026022,11069846000000,18,,-1332670773582635537,0.6571407318115234,66.45560642937198,-4.883907567190873,12.817064269884817,2,5,0.0,16399,307443348673919,40,25.1,-270.4929504394531,0.8014999628067017,16,0.0,0.0,1.57542003E9,,,,0,,1,2.22
Raw,28026022,11069846000000,18,,-1332670773582635537,0.6571407318115234,66.45560642937198,-4.883907567190873,12.817064269884817,2,16,0.0,16399,307443348433293,24,29.0,-633.967529296875,0.6783843040466309,16,0.0,0.0,1.57542003E9,,,,0,,1,2.22
Raw,28026022,11069846000000,18,,-1332670773582635537,0.6571407318115234,66.45560642937198,-4.883907567190873,12.817064269884817,2,18,0.0,16399,307443357287826,27,27.8,-474.19281005859375,0.6679999828338623,16,0.0,0.0,1.57542003E9,,,,0,,1,2.22
Raw,28026023,11069846000000,18,,-1332670773582635537,0.6571407318115234,66.45560642937198,-4.883907567190873,12.817064269884817,2,20,0.0,16399,307443347916577,70,21.4,49.84742736816406,1.0929999351501465,16,0.0,0.0,1.57542003E9,,,,0,,1,2.22
Raw,28026023,11069846000000,18,,-1332670773582635537,0.6571407318115234,66.45560642937198,-4.883907567190873,12.817064269884817,2,25,0.0,16399,307443354736704,27,27.7,537.98876953125,0.67249995470047,16,0.0,0.0,1.57542003E9,,,,0,,1,2.22
Raw,28026023,11069846000000,18,,-1332670773582635537,0.6571407318115234,66.45560642937198,-4.883907567190873,12.817064269884817,2,26,0.0,16399,307443357383597,12,35.6,-423.3764343261719,0.025497570633888245,16,0.0,0.0,1.57542003E9,,,,0,,1,2.22
Raw,28026023,11069846000000,18,,-1332670773582635537,0.6571407318115234,66.45560642937198,-4.883907567190873,12.817064269884817,2,29,0.0,16399,307443358997006,27,27.8,297.5527038574219,0.6664999723434448,16,0.0,0.0,1.57542003E9,,,,0,,1,2.22
Raw,28026023,11069846000000,18,,-1332670773582635537,0.6571407318115234,66.45560642937198,-4.883907567190873,12.817064269884817,2,31,0.0,16399,307443357698844,17,31.9,271.941162109375,0.03379437327384949,16,0.0,0.0,1.57542003E9,,,,0,,1,2.22
Raw,28026023,11069846000000,18,,-1332670773582635537,0.6571407318115234,66.45560642937198,-4.883907567190873,12.817064269884817,2,14,0.0,49359,59025348099090,70,21.5,-784.7670288085938,1.3585000038146973,16,0.0,0.0,1.59806246E9,,,,0,,3,1.55
Raw,28026024,11069846000000,18,,-1332670773582635537,0.6571407318115234,66.45560642937198,-4.883907567190873,12.817064269884817,2,13,0.0,49359,59025362597919,70,21.1,-397.71014404296875,1.3494999408721924,16,0.0,0.0,1.60087501E9,,,,0,,3,1.55
Raw,28026024,11069846000000,18,,-1332670773582635537,0.6571407318115234,66.45560642937198,-4.883907567190873,12.817064269884817,2,12,0.0,49359,59025363131527,46,24.7,337.8529968261719,0.8689999580383301,16,0.0,0.0,1.60143744E9,,,,0,,3,1.55
Raw,28026024,11069846000000,18,,-1332670773582635537,0.6571407318115234,66.45560642937198,-4.883907567190873,12.817064269884817,2,5,0.0,49359,59025348678737,46,24.2,-27.312318801879883,1.128499984741211,16,0.0,0.0,1.60256256E9,,,,0,,3,1.55
Raw,28026024,11069846000000,18,,-1332670773582635537,0.6571407318115234,66.45560642937198,-4.883907567190873,12.817064269884817,2,24,0.0,49359,59025348076532,61,22.2,-786.5619506835938,1.2785000801086426,16,0.0,0.0,1.60312499E9,,,,0,,3,1.55
Raw,28026024,11069846000000,18,,-1332670773582635537,0.6571407318115234,66.45560642937198,-4.883907567190873,12.817064269884817,2,21,0.0,49359,59025351386842,35,26.2,762.725830078125,0.7369999885559082,16,0.0,0.0,1.60424998E9,,,,0,,3,1.55
Raw,28026025,11069846000000,18,,-1332670773582635537,0.6571407318115234,66.45560642937198,-4.883907567190873,12.817064269884817,2,46,0.0,16399,307429341890155,61,22.3,647.5955810546875,1.2680000066757202,16,0.0,0.0,1.56109798E9,,,,0,,5,3.13
Raw,28026025,11069846000000,18,,-1332670773582635537,0.6571407318115234,66.45560642937198,-4.883907567190873,12.817064269884817,2,45,0.0,16399,307429354535473,10,38.5,-259.71826171875,0.028453225269913673,16,0.0,0.0,1.56109798E9,,,,0,,5,3.13
Raw,28026025,11069846000000,18,,-1332670773582635537,0.6571407318115234,66.45560642937198,-4.883907567190873,12.817064269884817,2,38,0.0,16399,307429295848388,61,23.2,159.9016876220703,0.9210000038146973,16,0.0,0.0,1.56109798E9,,,,0,,5,3.13
Raw,28026026,11069846000000,18,,-1332670773582635537,0.6571407318115234,66.45560642937198,-4.883907567190873,12.817064269884817,2,30,0.0,16399,307429355818407,17,32.9,244.73721313476562,0.03693927824497223,16,0.0,0.0,1.56109798E9,,,,0,,5,3.13
Raw,28026026,11069846000000,18,,-1332670773582635537,0.6571407318115234,66.45560642937198,-4.883907567190873,12.817064269884817,2,29,0.0,16399,307429354290778,17,32.4,-357.2774658203125,0.038439277559518814,16,0.0,0.0,1.56109798E9,,,,0,,5,3.13
Raw,28026026,11069846000000,18,,-1332670773582635537,0.6571407318115234,66.45560642937198,-4.883907567190873,12.817064269884817,2,26,0.0,16399,307429340841458,40,26.1,-615.9186401367188,0.7534999847412109,16,0.0,0.0,1.56109798E9,,,,0,,5,3.13
Raw,28026026,11069846000000,18,,-1332670773582635537,0.6571407318115234,66.45560642937198,-4.883907567190873,12.817064269884817,2,13,0.0,16399,307429301474058,19,31.8,-1.2648987770080566,0.06794454157352448,16,0.0,0.0,1.56109798E9,,,,0,,5,3.13
Raw,28026026,11069846000000,18,,-1332670773582635537,0.6571407318115234,66.45560642937198,-4.883907567190873,12.817064269884817,2,8,0.0,16399,307429299462659,21,30.6,108.25118255615234,0.6356139779090881,16,0.0,0.0,1.56109798E9,,,,0,,5,3.13
Raw,28026026,11069846000000,18,,-1332670773582635537,0.6571407318115234,66.45560642937198,-4.883907567190873,12.817064269884817,2,1,0.0,23567,307443344709179,31,27.4,380.5420227050781,0.6095873713493347,16,0.0,0.0,1.57542003E9,,,,0,,6,2.25
Raw,28026026,11069846000000,18,,-1332670773582635537,0.6571407318115234,66.45560642937198,-4.883907567190873,12.817064269884817,2,5,0.0,23567,307443333992449,80,21.2,292.6050720214844,1.3869999647140503,16,0.0,0.0,1.57542003E9,,,,0,,6,2.25
Raw,28026027,11069846000000,18,,-1332670773582635537,0.6571407318115234,66.45560642937198,-4.883907567190873,12.817064269884817,2,24,0.0,23567,307443341423226,13,35.3,-458.9950256347656,0.035391952842473984,16,0.0,0.0,1.57542003E9,,,,0,,6,2.25
Raw,28026027,11069846000000,18,,-1332670773582635537,0.6571407318115234,66.45560642937198,-4.883907567190873,12.817064269884817,2,26,0.0,23567,307443344865859,24,29.9,314.8610534667969,0.05389181897044182,16,0.0,0.0,1.57542003E9,,,,0,,6,2.25
Raw,28026027,11069846000000,18,,-1332670773582635537,0.6571407318115234,66.45560642937198,-4.883907567190873,12.817064269884817,2,31,0.0,23567,307443350341314,21,30.5,-103.0586929321289,0.0476054847240448,16,0.0,0.0,1.57542003E9,,,,0,,6,2.25
Raw,28026027,11069846000000,18,,-1332670773582635537,0.6571407318115234,66.45560642937198,-4.883907567190873,12.817064269884817,2,33,0.0,23567,307443349393377,31,27.8,-205.1820526123047,0.6110873818397522,16,0.0,0.0,1.57542003E9,,,,0,,6,2.25
Raw,28026027,11069846000000,18,,-1332670773582635537,0.6571407318115234,66.45560642937198,-4.883907567190873,12.817064269884817,2,18,0.0,81935,307443357295648,6,31.4,-474.3489685058594,0.08258473873138428,16,0.0,0.0,1.17645005E9,,,,0,,1,0.22
Raw,28026027,11069846000000,18,,-1332670773582635537,0.6571407318115234,66.45560642937198,-4.883907567190873,12.817064269884817,2,25,0.0,81935,307443354744535,7,29.5,537.9140625,0.11100851744413376,16,0.0,0.0,1.17645005E9,,,,0,,1,0.22
Raw,28026028,11069846000000,18,,-1332670773582635537,0.6571407318115234,66.45560642937198,-4.883907567190873,12.817064269884817,2,26,0.0,81935,307443357391451,4,34.5,-423.3891906738281,0.07147423923015594,16,0.0,0.0,1.17645005E9,,,,0,,1,0.22
Raw,28026028,11069846000000,18,,-1332670773582635537,0.6571407318115234,66.45560642937198,-4.883907567190873,12.817064269884817,2,1,0.0,81935,307443344715569,6,30.7,380.54132080078125,0.0755203515291214,16,0.0,0.0,1.17645005E9,,,,0,,6,0.22
Raw,28026028,11069846000000,18,,-1332670773582635537,0.6571407318115234,66.45560642937198,-4.883907567190873,12.817064269884817,2,24,0.0,81935,307443341429590,6,31.9,-459.0096435546875,0.05858473479747772,16,0.0,0.0,1.17645005E9,,,,0,,6,0.22
Raw,28026028,11069846000000,18,,-1332670773582635537,0.6571407318115234,66.45560642937198,-4.883907567190873,12.817064269884817,2,26,0.0,81935,307443344872234,5,33.1,314.87310791015625,0.057045310735702515,16,0.0,0.0,1.17645005E9,,,,0,,6,0.22
Raw,28026028,11069846000000,18,,-1332670773582635537,0.6571407318115234,66.45560642937198,-4.883907567190873,12.817064269884817,2,31,0.0,81935,307443350347685,5,33.4,-103.05225372314453,0.06311479210853577,16,0.0,0.0,1.17645005E9,,,,0,,6,0.22
Raw,28026029,11069846000000,18,,-1332670773582635537,0.6571407318115234,66.45560642937198,-4.883907567190873,12.817064269884817,2,33,0.0,81935,307443349399742,6,30.8,-205.22537231445312,0.8475044965744019,16,0.0,0.0,1.17645005E9,,,,0,,6,0.22
Raw,28026029,11069846000000,18,,-1332670773582635537,0.6571407318115234,66.45560642937198,-4.883907567190873,12.817064269884817,2,29,0.0,16399,307429354297049,6,30.8,-357.2818298339844,0.07808473706245422,16,0.0,0.0,1.17645005E9,,,,0,,5,0.22
Raw,28026029,11069846000000,18,,-1332670773582635537,0.6571407318115234,66.45560642937198,-4.883907567190873,12.817064269884817,2,30,0.0,16399,307429355824679,5,32.8,244.72630310058594,0.0706147849559784,16,0.0,0.0,1.17645005E9,,,,0,,5,0.22
Raw,28026029,11069846000000,18,,-1332670773582635537,0.6571407318115234,66.45560642937198,-4.883907567190873,12.817064269884817,2,36,0.0,16399,307429353283022,5,31.9,355.6063537597656,0.07054531574249268,16,0.0,0.0,1.17645005E9,,,,0,,5,0.22
Raw,28026030,11069846000000,18,,-1332670773582635537,0.6571407318115234,66.45560642937198,-4.883907567190873,12.817064269884817,2,45,0.0,16399,307429354541718,3,37.0,-259.7474670410156,0.09254022687673569,16,0.0,0.0,1.17645005E9,,,,0,,5,0.22
Raw,28026030,11069846000000,18,,-1332670773582635537,0.6571407318115234,66.45560642937198,-4.883907567190873,12.817064269884817,2,27,0.0,16399,307429343646290,14,24.7,591.4422607421875,0.9890000224113464,16,0.0,0.0,1.57542003E9,,,,0,,5,2.25
Raw,28026030,11069846000000,18,,-1332670773582635537,0.6571407318115234,66.45560642937198,-4.883907567190873,12.817064269884817,2,29,0.0,16399,307429354290671,6,33.7,-357.2788391113281,0.026605485007166862,16,0.0,0.0,1.57542003E9,,,,0,,5,2.25
Raw,28026030,11069846000000,18,,-1332670773582635537,0.6571407318115234,66.45560642937198,-4.883907567190873,12.817064269884817,2,30,0.0,16399,307429355818293,7,31.0,244.72230529785156,1.7623344659805298,16,0.0,0.0,1.57542003E9,,,,0,,5,2.25
Raw,28026030,11069846000000,18,,-1332670773582635537,0.6571407318115234,66.45560642937198,-4.883907567190873,12.817064269884817,2,36,0.0,16399,307429353276650,11,26.7,355.61102294921875,0.679461658000946,16,0.0,0.0,1.57542003E9,,,,0,,5,2.25
Raw,28026030,11069846000000,18,,-1332670773582635537,0.6571407318115234,66.45560642937198,-4.883907567190873,12.817064269884817,2,38,0.0,16399,307429295848272,10,27.0,160.80935668945312,1.76288640499115,16,0.0,0.0,1.57542003E9,,,,0,,5,2.25
Raw,28026031,11069846000000,18,,-1332670773582635537,0.6571407318115234,66.45560642937198,-4.883907567190873,12.817064269884817,2,45,0.0,16399,307429354535375,3,38.5,-259.7206726074219,0.5867729783058167,16,0.0,0.0,1.57542003E9,,,,0,,5,2.25
Raw,28026031,11069846000000,18,,-1332670773582635537,0.6571407318115234,66.45560642937198,-4.883907567190873,12.817064269884817,2,46,0.0,16399,307429341890043,11,26.7,647.5773315429688,0.11158067733049393,16,0.0,0.0,1.57542003E9,,,,0,,5,2.25
Fix,gps,46.206904,6.156585,425.064941,0.000000,3.957142,1648646627000
Raw,28027015,11070846000000,18,,-1332670773582635562,0.9212131500244141,49.42938176100142,-5.498601198733471,10.086968460044288,2,4,0.0,16399,307444345034440,40,25.0,11.436650276184082,0.8059999942779541,16,0.0,0.0,1.57542003E9,,,,0,,1,2.48
Raw,28027016,11070846000000,18,,-1332670773582635562,0.9212131500244141,49.42938176100142,-5.498601198733471,10.086968460044288,2,5,0.0,16399,307444348674812,46,24.4,-270.20751953125,0.8614999651908875,16,0.0,0.0,1.57542003E9,,,,0,,1,2.48
Raw,28027016,11070846000000,18,,-1332670773582635562,0.9212131500244141,49.42938176100142,-5.498601198733471,10.086968460044288,2,16,0.0,16399,307444348435409,19,30.8,-633.6259155273438,0.057208675891160965,16,0.0,0.0,1.57542003E9,,,,0,,1,2.48
Raw,28027016,11070846000000,18,,-1332670773582635562,0.9212131500244141,49.42938176100142,-5.498601198733471,10.086968460044288,2,20,0.0,16399,307444347916389,40,25.2,49.352664947509766,0.8029999732971191,16,0.0,0.0,1.57542003E9,,,,0,,1,2.48
Raw,28027016,11070846000000,18,,-1332670773582635562,0.9212131500244141,49.42938176100142,-5.498601198733471,10.086968460044288,2,25,0.0,16399,307444354734881,24,29.2,538.2901000976562,0.09850329160690308,16,0.0,0.0,1.57542003E9,,,,0,,1,2.48
Raw,28027017,11070846000000,18,,-1332670773582635562,0.9212131500244141,49.42938176100142,-5.498601198733471,10.086968460044288,2,26,0.0,16399,307444357385015,8,39.8,-423.0023498535156,0.022700253874063492,16,0.0,0.0,1.57542003E9,,,,0,,1,2.48
Raw,28027017,11070846000000,18,,-1332670773582635562,0.9212131500244141,49.42938176100142,-5.498601198733471,10.086968460044288,2,29,0.0,16399,307444358996019,21,30.1,298.5238342285156,0.060591042041778564,16,0.0,0.0,1.57542003E9,,,,0,,1,2.48
Raw,28027017,11070846000000,18,,-1332670773582635562,0.9212131500244141,49.42938176100142,-5.498601198733471,10.086968460044288,2,31,0.0,16399,307444357697966,19,30.6,272.4009094238281,0.0437086746096611,16,0.0,0.0,1.57542003E9,,,,0,,1,2.48
Raw,28027018,11070846000000,18,,-1332670773582635562,0.9212131500244141,49.42938176100142,-5.498601198733471,10.086968460044288,2,13,0.0,49359,59026362599202,53,23.2,-396.2775573730469,0.9404999613761902,16,0.0,0.0,1.60087501E9,,,,0,,3,1.82
Raw,28027018,11070846000000,18,,-1332670773582635562,0.9212131500244141,49.42938176100142,-5.498601198733471,10.086968460044288,2,12,0.0,49359,59026363130408,40,25.7,338.26483154296875,0.8089999556541443,16,0.0,0.0,1.60143744E9,,,,0,,3,1.82
Raw,28027018,11070846000000,18,,-1332670773582635562,0.9212131500244141,49.42938176100142,-5.498601198733471,10.086968460044288,2,5,0.0,49359,59026348678955,61,22.2,-26.90076446533203,1.0115000009536743,16,0.0,0.0,1.60256256E9,,,,0,,3,1.82
Raw,28027018,11070846000000,18,,-1332670773582635562,0.9212131500244141,49.42938176100142,-5.498601198733471,10.086968460044288,2,23,0.0,49359,59026360489776,46,24.1,-530.9828491210938,1.8665001392364502,16,0.0,0.0,1.60368755E9,,,,0,,3,1.82
Raw,28027018,11070846000000,18,,-1332670773582635562,0.9212131500244141,49.42938176100142,-5.498601198733471,10.086968460044288,2,21,0.0,49359,59026351384456,35,26.3,763.2117309570312,0.7369999885559082,16,0.0,0.0,1.60424998E9,,,,0,,3,1.82
Raw,28027019,11070846000000,18,,-1332670773582635562,0.9212131500244141,49.42938176100142,-5.498601198733471,10.086968460044288,2,45,0.0,16399,307430354536344,11,37.7,-259.3067626953125,0.02925978973507881,16,0.0,0.0,1.56109798E9,,,,0,,5,3.38
Raw,28027019,11070846000000,18,,-1332670773582635562,0.9212131500244141,49.42938176100142,-5.498601198733471,10.086968460044288,2,38,0.0,16399,307430295847849,53,23.8,161.22674560546875,0.9210000038146973,16,0.0,0.0,1.56109798E9,,,,0,,5,3.38
Raw,28027019,11070846000000,18,,-1332670773582635562,0.9212131500244141,49.42938176100142,-5.498601198733471,10.086968460044288,2,36,0.0,16399,307430353275569,61,22.8,355.9836120605469,2.0360002517700195,16,0.0,0.0,1.56109798E9,,,,0,,5,3.38
Raw,28027019,11070846000000,18,,-1332670773582635562,0.9212131500244141,49.42938176100142,-5.498601198733471,10.086968460044288,2,30,0.0,16399,307430355817598,19,31.7,245.11447143554688,0.04694453626871109,16,0.0,0.0,1.56109798E9,,,,0,,5,3.38
Raw,28027019,11070846000000,18,,-1332670773582635562,0.9212131500244141,49.42938176100142,-5.498601198733471,10.086968460044288,2,29,0.0,16399,307430354291978,21,30.6,-356.8488464355469,0.0669955462217331,16,0.0,0.0,1.56109798E9,,,,0,,5,3.38
Raw,28027022,11070846000000,18,,-1332670773582635562,0.9212131500244141,49.42938176100142,-5.498601198733471,10.086968460044288,2,27,0.0,16399,307430343644468,70,21.4,592.2977905273438,2.1009998321533203,16,0.0,0.0,1.56109798E9,,,,0,,5,3.38
Raw,28027022,11070846000000,18,,-1332670773582635562,0.9212131500244141,49.42938176100142,-5.498601198733471,10.086968460044288,2,26,0.0,16399,307430340843467,46,24.4,-616.1491088867188,0.8734999895095825,16,0.0,0.0,1.56109798E9,,,,0,,5,3.38
Raw,28027023,11070846000000,18,,-1332670773582635562,0.9212131500244141,49.42938176100142,-5.498601198733471,10.086968460044288,2,13,0.0,16399,307430301474046,21,30.7,-0.8800345063209534,0.0864955484867096,16,0.0,0.0,1.56109798E9,,,,0,,5,3.38
Raw,28027023,11070846000000,18,,-1332670773582635562,0.9212131500244141,49.42938176100142,-5.498601198733471,10.086968460044288,2,8,0.0,16399,307430299462283,27,28.6,108.21424865722656,0.6150000095367432,16,0.0,0.0,1.56109798E9,,,,0,,5,3.38
Raw,28027023,11070846000000,18,,-1332670773582635562,0.9212131500244141,49.42938176100142,-5.498601198733471,10.086968460044288,2,1,0.0,23567,307444344707939,27,28.6,380.9007873535156,0.6080269813537598,16,0.0,0.0,1.57542003E9,,,,0,,6,2.54
Raw,28027023,11070846000000,18,,-1332670773582635562,0.9212131500244141,49.42938176100142,-5.498601198733471,10.086968460044288,2,5,0.0,23567,307444333991455,46,24.3,292.5968322753906,0.6421242952346802,16,0.0,0.0,1.57542003E9,,,,0,,6,2.54
Raw,28027024,11070846000000,18,,-1332670773582635562,0.9212131500244141,49.42938176100142,-5.498601198733471,10.086968460044288,2,24,0.0,23567,307444341424753,11,37.3,-458.66424560546875,0.03369833901524544,16,0.0,0.0,1.57542003E9,,,,0,,6,2.54
Raw,28027024,11070846000000,18,,-1332670773582635562,0.9212131500244141,49.42938176100142,-5.498601198733471,10.086968460044288,2,26,0.0,23567,307444344864811,17,32.3,315.2615661621094,0.03790714964270592,16,0.0,0.0,1.57542003E9,,,,0,,6,2.54
Raw,28027024,11070846000000,18,,-1332670773582635562,0.9212131500244141,49.42938176100142,-5.498601198733471,10.086968460044288,2,31,0.0,23567,307444350341660,19,32.0,-102.6825180053711,0.04309552535414696,16,0.0,0.0,1.57542003E9,,,,0,,6,2.54
Raw,28027024,11070846000000,18,,-1332670773582635562,0.9212131500244141,49.42938176100142,-5.498601198733471,10.086968460044288,2,33,0.0,23567,307444349394036,46,25.2,-204.8437957763672,0.0712432786822319,16,0.0,0.0,1.57542003E9,,,,0,,6,2.54
Raw,28027024,11070846000000,18,,-1332670773582635562,0.9212131500244141,49.42938176100142,-5.498601198733471,10.086968460044288,2,18,0.0,81935,307444357297228,8,28.8,-473.94024658203125,0.8391691446304321,16,0.0,0.0,1.17645005E9,,,,0,,1,0.46
Raw,28027025,11070846000000,18,,-1332670773582635562,0.9212131500244141,49.42938176100142,-5.498601198733471,10.086968460044288,2,25,0.0,81935,307444354742747,6,30.3,538.3272705078125,0.09052035212516785,16,0.0,0.0,1.17645005E9,,,,0,,1,0.46
Raw,28027025,11070846000000,18,,-1332670773582635562,0.9212131500244141,49.42938176100142,-5.498601198733471,10.086968460044288,2,26,0.0,81935,307444357392860,3,36.0,-423.00048828125,0.06823792308568954,16,0.0,0.0,1.17645005E9,,,,0,,1,0.46
Raw,28027025,11070846000000,18,,-1332670773582635562,0.9212131500244141,49.42938176100142,-5.498601198733471,10.086968460044288,2,1,0.0,81935,307444344714301,8,28.1,380.8853759765625,0.057656899094581604,16,0.0,0.0,1.17645005E9,,,,0,,6,0.46
Raw,28027025,11070846000000,18,,-1332670773582635562,0.9212131500244141,49.42938176100142,-5.498601198733471,10.086968460044288,2,12,0.0,81935,307444344877123,12,23.8,-586.2828369140625,0.9375,16,0.0,0.0,1.17645005E9,,,,0,,6,0.46
Raw,28027026,11070846000000,18,,-1332670773582635562,0.9212131500244141,49.42938176100142,-5.498601198733471,10.086968460044288,2,24,0.0,81935,307444341431124,5,33.0,-458.6498718261719,0.05254530906677246,16,0.0,0.0,1.17645005E9,,,,0,,6,0.46
Raw,28027026,11070846000000,18,,-1332670773582635562,0.9212131500244141,49.42938176100142,-5.498601198733471,10.086968460044288,2,26,0.0,81935,307444344871179,5,33.2,315.2778015136719,0.057045310735702515,16,0.0,0.0,1.17645005E9,,,,0,,6,0.46
Raw,28027026,11070846000000,18,,-1332670773582635562,0.9212131500244141,49.42938176100142,-5.498601198733471,10.086968460044288,2,31,0.0,81935,307444350348026,5,33.9,-102.7038345336914,0.06311479210853577,16,0.0,0.0,1.17645005E9,,,,0,,6,0.46
Raw,28027026,11070846000000,18,,-1332670773582635562,0.9212131500244141,49.42938176100142,-5.498601198733471,10.086968460044288,2,33,0.0,81935,307444349400420,7,29.4,-205.11752319335938,1.6324766874313354,16,0.0,0.0,1.17645005E9,,,,0,,6,0.46
Raw,28027027,11070846000000,18,,-1332670773582635562,0.9212131500244141,49.42938176100142,-5.498601198733471,10.086968460044288,2,29,0.0,16399,307430354298242,6,30.2,-356.85626220703125,0.09052035212516785,16,0.0,0.0,1.17645005E9,,,,0,,5,0.46
Raw,28027027,11070846000000,18,,-1332670773582635562,0.9212131500244141,49.42938176100142,-5.498601198733471,10.086968460044288,2,30,0.0,16399,307430355823860,5,32.6,245.1261749267578,0.0706147849559784,16,0.0,0.0,1.17645005E9,,,,0,,5,0.46
Raw,28027027,11070846000000,18,,-1332670773582635562,0.9212131500244141,49.42938176100142,-5.498601198733471,10.086968460044288,2,36,0.0,16399,307430353281832,4,33.5,356.0118713378906,0.06547423452138901,16,0.0,0.0,1.17645005E9,,,,0,,5,0.46
Raw,28027027,11070846000000,18,,-1332670773582635562,0.9212131500244141,49.42938176100142,-5.498601198733471,10.086968460044288,2,45,0.0,16399,307430354542586,3,36.1,-259.3147888183594,0.09373792260885239,16,0.0,0.0,1.17645005E9,,,,0,,5,0.46
Raw,28027028,11070846000000,18,,-1332670773582635562,0.9212131500244141,49.42938176100142,-5.498601198733471,10.086968460044288,2,27,0.0,16399,307430343644361,10,27.0,591.6746215820312,0.6961243152618408,16,0.0,0.0,1.57542003E9,,,,0,,5,2.54
Raw,28027028,11070846000000,18,,-1332670773582635562,0.9212131500244141,49.42938176100142,-5.498601198733471,10.086968460044288,2,29,0.0,16399,307430354291868,8,30.2,-356.87554931640625,0.09570638090372086,16,0.0,0.0,1.57542003E9,,,,0,,5,2.54
Raw,28027028,11070846000000,18,,-1332670773582635562,0.9212131500244141,49.42938176100142,-5.498601198733471,10.086968460044288,2,30,0.0,16399,307430355817480,6,32.5,245.0954132080078,0.11239182204008102,16,0.0,0.0,1.57542003E9,,,,0,,5,2.54
Raw,28027028,11070846000000,18,,-1332670773582635562,0.9212131500244141,49.42938176100142,-5.498601198733471,10.086968460044288,2,36,0.0,16399,307430353275485,11,26.4,356.10748291015625,1.3223426342010498,16,0.0,0.0,1.57542003E9,,,,0,,5,2.54
Raw,28027028,11070846000000,18,,-1332670773582635562,0.9212131500244141,49.42938176100142,-5.498601198733471,10.086968460044288,2,38,0.0,16399,307430295847698,12,25.2,161.226318359375,1.0640000104904175,16,0.0,0.0,1.57542003E9,,,,0,,5,2.54
Raw,28027028,11070846000000,18,,-1332670773582635562,0.9212131500244141,49.42938176100142,-5.498601198733471,10.086968460044288,2,45,0.0,16399,307430354536228,3,39.3,-259.3291931152344,0.08999757468700409,16,0.0,0.0,1.57542003E9,,,,0,,5,2.54
Raw,28027029,11070846000000,18,,-1332670773582635562,0.9212131500244141,49.42938176100142,-5.498601198733471,10.086968460044288,2,46,0.0,16399,307430341887877,10,27.0,647.9556884765625,0.6931242942810059,16,0.0,0.0,1.57542003E9,,,,0,,5,2.54
Fix,gps,46.206902,6.156588,424.106567,0.000000,3.790092,1648646628000
Raw,28028016,11071846000000,18,,-1332670773582635576,0.1988658905029297,41.318577132187784,-4.24908582746294,9.81908993819617,2,2,0.0,16399,307445342219751,70,20.9,617.3317260742188,1.8594999313354492,16,0.0,0.0,1.57542003E9,,,,0,,1,2.38
Raw,28028016,11071846000000,18,,-1332670773582635576,0.1988658905029297,41.318577132187784,-4.24908582746294,9.81908993819617,2,4,0.0,16399,307445345034301,31,26.7,11.27489948272705,0.7459999918937683,16,0.0,0.0,1.57542003E9,,,,0,,1,2.38
Raw,28028017,11071846000000,18,,-1332670773582635576,0.1988658905029297,41.318577132187784,-4.24908582746294,9.81908993819617,2,5,0.0,16399,307445348675731,40,24.7,-271.0638427734375,0.8614999651908875,16,0.0,0.0,1.57542003E9,,,,0,,1,2.38
Raw,28028017,11071846000000,18,,-1332670773582635576,0.1988658905029297,41.318577132187784,-4.24908582746294,9.81908993819617,2,16,0.0,16399,307445348437523,21,30.0,-633.8078002929688,0.07559104263782501,16,0.0,0.0,1.57542003E9,,,,0,,1,2.38
Raw,28028017,11071846000000,18,,-1332670773582635576,0.1988658905029297,41.318577132187784,-4.24908582746294,9.81908993819617,2,18,0.0,16399,307445357290970,92,19.5,-473.736083984375,1.9720001220703125,16,0.0,0.0,1.57542003E9,,,,0,,1,2.38
Raw,28028018,11071846000000,18,,-1332670773582635576,0.1988658905029297,41.318577132187784,-4.24908582746294,9.81908993819617,2,20,0.0,16399,307445347916374,70,21.4,49.50489807128906,1.0929999351501465,16,0.0,0.0,1.57542003E9,,,,0,,1,2.38
Raw,28028018,11071846000000,18,,-1332670773582635576,0.1988658905029297,41.318577132187784,-4.24908582746294,9.81908993819617,2,25,0.0,16399,307445354733055,24,29.2,538.150146484375,0.09850329160690308,16,0.0,0.0,1.57542003E9,,,,0,,1,2.38
Raw,28028018,11071846000000,18,,-1332670773582635576,0.1988658905029297,41.318577132187784,-4.24908582746294,9.81908993819617,2,26,0.0,16399,307445357386409,8,40.0,-423.1046447753906,0.022700253874063492,16,0.0,0.0,1.57542003E9,,,,0,,1,2.38
Raw,28028018,11071846000000,18,,-1332670773582635576,0.1988658905029297,41.318577132187784,-4.24908582746294,9.81908993819617,2,29,0.0,16399,307445358995066,24,29.5,298.4233093261719,0.09250329434871674,16,0.0,0.0,1.57542003E9,,,,0,,1,2.38
Raw,28028018,11071846000000,18,,-1332670773582635576,0.1988658905029297,41.318577132187784,-4.24908582746294,9.81908993819617,2,31,0.0,16399,307445357697037,21,30.3,272.3433532714844,0.06209104508161545,16,0.0,0.0,1.57542003E9,,,,0,,1,2.38
Raw,28028018,11071846000000,18,,-1332670773582635576,0.1988658905029297,41.318577132187784,-4.24908582746294,9.81908993819617,2,14,0.0,49359,59027348104250,70,21.3,-784.5325317382812,1.778499960899353,16,0.0,0.0,1.59806246E9,,,,0,,3,1.9
Raw,28028018,11071846000000,18,,-1332670773582635576,0.1988658905029297,41.318577132187784,-4.24908582746294,9.81908993819617,2,22,0.0,49359,59027363002921,106,18.4,365.8721008300781,3.13100004196167,16,0.0,0.0,1.60031245E9,,,,0,,3,1.9
Raw,28028019,11071846000000,18,,-1332670773582635576,0.1988658905029297,41.318577132187784,-4.24908582746294,9.81908993819617,2,13,0.0,49359,59027362600594,53,23.4,-396.549072265625,0.9404999613761902,16,0.0,0.0,1.60087501E9,,,,0,,3,1.9
Raw,28028019,11071846000000,18,,-1332670773582635576,0.1988658905029297,41.318577132187784,-4.24908582746294,9.81908993819617,2,12,0.0,49359,59027363129240,35,26.3,338.3303527832031,0.7489999532699585,16,0.0,0.0,1.60143744E9,,,,0,,3,1.9
Raw,28028019,11071846000000,18,,-1332670773582635576,0.1988658905029297,41.318577132187784,-4.24908582746294,9.81908993819617,2,5,0.0,49359,59027348679018,53,23.7,-26.629512786865234,0.9314999580383301,16,0.0,0.0,1.60256256E9,,,,0,,3,1.9
Raw,28028019,11071846000000,18,,-1332670773582635576,0.1988658905029297,41.318577132187784,-4.24908582746294,9.81908993819617,2,24,0.0,49359,59027348081745,92,19.8,-786.7396240234375,1.9585000276565552,16,0.0,0.0,1.60312499E9,,,,0,,3,1.9
Raw,28028019,11071846000000,18,,-1332670773582635576,0.1988658905029297,41.318577132187784,-4.24908582746294,9.81908993819617,2,23,0.0,49359,59027360491584,27,28.4,-530.1883544921875,0.643500030040741,16,0.0,0.0,1.60368755E9,,,,0,,3,1.9
Raw,28028019,11071846000000,18,,-1332670773582635576,0.1988658905029297,41.318577132187784,-4.24908582746294,9.81908993819617,2,21,0.0,49359,59027351381941,31,27.7,763.3518676757812,0.6769999861717224,16,0.0,0.0,1.60424998E9,,,,0,,3,1.9
Raw,28028019,11071846000000,18,,-1332670773582635576,0.1988658905029297,41.318577132187784,-4.24908582746294,9.81908993819617,2,46,0.0,16399,307431341885838,61,22.3,647.3651123046875,1.6880000829696655,16,0.0,0.0,1.56109798E9,,,,0,,5,3.46
Raw,28028020,11071846000000,18,,-1332670773582635576,0.1988658905029297,41.318577132187784,-4.24908582746294,9.81908993819617,2,45,0.0,16399,307431354537202,11,37.4,-259.3876037597656,0.02925978973507881,16,0.0,0.0,1.56109798E9,,,,0,,5,3.46
Raw,28028020,11071846000000,18,,-1332670773582635576,0.1988658905029297,41.318577132187784,-4.24908582746294,9.81908993819617,2,38,0.0,16399,307431295847281,40,26.0,160.35296630859375,0.7310000061988831,16,0.0,0.0,1.56109798E9,,,,0,,5,3.46
Raw,28028020,11071846000000,18,,-1332670773582635576,0.1988658905029297,41.318577132187784,-4.24908582746294,9.81908993819617,2,36,0.0,16399,307431353274373,40,25.3,355.9739990234375,0.793999969959259,16,0.0,0.0,1.56109798E9,,,,0,,5,3.46
Raw,28028020,11071846000000,18,,-1332670773582635576,0.1988658905029297,41.318577132187784,-4.24908582746294,9.81908993819617,2,30,0.0,16399,307431355816767,19,31.5,245.0260772705078,0.04694453626871109,16,0.0,0.0,1.56109798E9,,,,0,,5,3.46
Raw,28028020,11071846000000,18,,-1332670773582635576,0.1988658905029297,41.318577132187784,-4.24908582746294,9.81908993819617,2,29,0.0,16399,307431354293155,21,30.4,-356.9906921386719,1.2192325592041016,16,0.0,0.0,1.56109798E9,,,,0,,5,3.46
Raw,28028020,11071846000000,18,,-1332670773582635576,0.1988658905029297,41.318577132187784,-4.24908582746294,9.81908993819617,2,26,0.0,16399,307431340845521,53,23.3,-615.515380859375,0.9434999823570251,16,0.0,0.0,1.56109798E9,,,,0,,5,3.46
Raw,28028021,11071846000000,18,,-1332670773582635576,0.1988658905029297,41.318577132187784,-4.24908582746294,9.81908993819617,2,13,0.0,16399,307431301474045,21,30.6,-1.0512912273406982,0.6626139879226685,16,0.0,0.0,1.56109798E9,,,,0,,5,3.46
Raw,28028021,11071846000000,18,,-1332670773582635576,0.1988658905029297,41.318577132187784,-4.24908582746294,9.81908993819617,2,8,0.0,16399,307431299461943,24,29.5,108.47312927246094,0.09170056879520416,16,0.0,0.0,1.56109798E9,,,,0,,5,3.46
Raw,28028021,11071846000000,18,,-1332670773582635576,0.1988658905029297,41.318577132187784,-4.24908582746294,9.81908993819617,2,1,0.0,23567,307445344706662,31,27.9,380.8079833984375,0.03870638087391853,16,0.0,0.0,1.57542003E9,,,,0,,6,2.45
Raw,28028021,11071846000000,18,,-1332670773582635576,0.1988658905029297,41.318577132187784,-4.24908582746294,9.81908993819617,2,5,0.0,23567,307445333990466,40,25.7,292.5873718261719,0.04856027662754059,16,0.0,0.0,1.57542003E9,,,,0,,6,2.45
Raw,28028021,11071846000000,18,,-1332670773582635576,0.1988658905029297,41.318577132187784,-4.24908582746294,9.81908993819617,2,12,0.0,23567,307445344872666,139,17.0,-586.171142578125,3.2855000495910645,16,0.0,0.0,1.57542003E9,,,,0,,6,2.45
Raw,28028021,11071846000000,18,,-1332670773582635576,0.1988658905029297,41.318577132187784,-4.24908582746294,9.81908993819617,2,24,0.0,23567,307445341426289,12,37.1,-458.77044677734375,0.034497570246458054,16,0.0,0.0,1.57542003E9,,,,0,,6,2.45
Raw,28028022,11071846000000,18,,-1332670773582635576,0.1988658905029297,41.318577132187784,-4.24908582746294,9.81908993819617,2,26,0.0,23567,307445344863764,16,33.3,315.1900329589844,0.03630868345499039,16,0.0,0.0,1.57542003E9,,,,0,,6,2.45
Raw,28028022,11071846000000,18,,-1332670773582635576,0.1988658905029297,41.318577132187784,-4.24908582746294,9.81908993819617,2,31,0.0,23567,307445350341997,19,31.7,-102.77021789550781,0.04309552535414696,16,0.0,0.0,1.57542003E9,,,,0,,6,2.45
Raw,28028022,11071846000000,18,,-1332670773582635576,0.1988658905029297,41.318577132187784,-4.24908582746294,9.81908993819617,2,33,0.0,23567,307445349394729,46,24.3,-204.85830688476562,0.0712432786822319,16,0.0,0.0,1.57542003E9,,,,0,,6,2.45
Raw,28028022,11071846000000,18,,-1332670773582635576,0.1988658905029297,41.318577132187784,-4.24908582746294,9.81908993819617,2,4,0.0,81935,307445345042110,14,22.4,11.365330696105957,1.7990000247955322,16,0.0,0.0,1.17645005E9,,,,0,,1,0.46
Raw,28028022,11071846000000,18,,-1332670773582635576,0.1988658905029297,41.318577132187784,-4.24908582746294,9.81908993819617,2,18,0.0,81935,307445357298808,7,29.2,-473.9806823730469,0.07259547710418701,16,0.0,0.0,1.17645005E9,,,,0,,1,0.46
Raw,28028023,11071846000000,18,,-1332670773582635576,0.1988658905029297,41.318577132187784,-4.24908582746294,9.81908993819617,2,25,0.0,81935,307445354740947,6,30.6,538.22607421875,0.09052035212516785,16,0.0,0.0,1.17645005E9,,,,0,,1,0.46
Raw,28028023,11071846000000,18,,-1332670773582635576,0.1988658905029297,41.318577132187784,-4.24908582746294,9.81908993819617,2,26,0.0,81935,307445357394271,3,36.3,-423.0718688964844,0.06823792308568954,16,0.0,0.0,1.17645005E9,,,,0,,1,0.46
Raw,28028023,11071846000000,18,,-1332670773582635576,0.1988658905029297,41.318577132187784,-4.24908582746294,9.81908993819617,2,1,0.0,81935,307445344713029,8,27.9,380.7931213378906,0.057656899094581604,16,0.0,0.0,1.17645005E9,,,,0,,6,0.46
Raw,28028023,11071846000000,18,,-1332670773582635576,0.1988658905029297,41.318577132187784,-4.24908582746294,9.81908993819617,2,12,0.0,81935,307445344879087,12,24.1,-586.2573852539062,0.8675000071525574,16,0.0,0.0,1.17645005E9,,,,0,,6,0.46
Raw,28028023,11071846000000,18,,-1332670773582635576,0.1988658905029297,41.318577132187784,-4.24908582746294,9.81908993819617,2,24,0.0,81935,307445341432650,5,32.3,-458.7620544433594,0.05254530906677246,16,0.0,0.0,1.17645005E9,,,,0,,6,0.46
Raw,28028023,11071846000000,18,,-1332670773582635576,0.1988658905029297,41.318577132187784,-4.24908582746294,9.81908993819617,2,26,0.0,81935,307445344870130,5,33.6,315.2115173339844,0.05411478877067566,16,0.0,0.0,1.17645005E9,,,,0,,6,0.46
Raw,28028023,11071846000000,18,,-1332670773582635576,0.1988658905029297,41.318577132187784,-4.24908582746294,9.81908993819617,2,31,0.0,81935,307445350348370,5,33.5,-102.75894165039062,0.06311479210853577,16,0.0,0.0,1.17645005E9,,,,0,,6,0.46
Raw,28028024,11071846000000,18,,-1332670773582635576,0.1988658905029297,41.318577132187784,-4.24908582746294,9.81908993819617,2,33,0.0,81935,307445349401109,7,30.1,-204.8588104248047,0.10350851714611053,16,0.0,0.0,1.17645005E9,,,,0,,6,0.46
Raw,28028024,11071846000000,18,,-1332670773582635576,0.1988658905029297,41.318577132187784,-4.24908582746294,9.81908993819617,2,27,0.0,16399,307431343648749,14,21.7,591.7744140625,1.0959999561309814,16,0.0,0.0,1.17645005E9,,,,0,,5,0.46
Raw,28028024,11071846000000,18,,-1332670773582635576,0.1988658905029297,41.318577132187784,-4.24908582746294,9.81908993819617,2,29,0.0,16399,307431354299431,6,31.0,-356.91497802734375,0.07808473706245422,16,0.0,0.0,1.17645005E9,,,,0,,5,0.46
Raw,28028024,11071846000000,18,,-1332670773582635576,0.1988658905029297,41.318577132187784,-4.24908582746294,9.81908993819617,2,30,0.0,16399,307431355823041,5,32.1,245.05206298828125,0.07354531437158585,16,0.0,0.0,1.17645005E9,,,,0,,5,0.46
Raw,28028024,11071846000000,18,,-1332670773582635576,0.1988658905029297,41.318577132187784,-4.24908582746294,9.81908993819617,2,36,0.0,16399,307431353280646,5,32.9,355.9678955078125,0.06761479377746582,16,0.0,0.0,1.17645005E9,,,,0,,5,0.46
Raw,28028024,11071846000000,18,,-1332670773582635576,0.1988658905029297,41.318577132187784,-4.24908582746294,9.81908993819617,2,45,0.0,16399,307431354543449,3,35.5,-259.34283447265625,0.09373792260885239,16,0.0,0.0,1.17645005E9,,,,0,,5,0.46
Raw,28028025,11071846000000,18,,-1332670773582635576,0.1988658905029297,41.318577132187784,-4.24908582746294,9.81908993819617,2,27,0.0,16399,307431343642341,14,24.9,591.632568359375,1.0609999895095825,16,0.0,0.0,1.57542003E9,,,,0,,5,2.45
Raw,28028025,11071846000000,18,,-1332670773582635576,0.1988658905029297,41.318577132187784,-4.24908582746294,9.81908993819617,2,29,0.0,16399,307431354293054,9,28.6,-356.89990234375,0.10406027734279633,16,0.0,0.0,1.57542003E9,,,,0,,5,2.45
Raw,28028025,11071846000000,18,,-1332670773582635576,0.1988658905029297,41.318577132187784,-4.24908582746294,9.81908993819617,2,30,0.0,16399,307431355816633,6,32.6,245.10400390625,0.11239182204008102,16,0.0,0.0,1.57542003E9,,,,0,,5,2.45
Raw,28028025,11071846000000,18,,-1332670773582635576,0.1988658905029297,41.318577132187784,-4.24908582746294,9.81908993819617,2,36,0.0,16399,307431353274281,9,28.3,355.9923095703125,0.10256027430295944,16,0.0,0.0,1.57542003E9,,,,0,,5,2.45
Raw,28028025,11071846000000,18,,-1332670773582635576,0.1988658905029297,41.318577132187784,-4.24908582746294,9.81908993819617,2,38,0.0,16399,307431295847180,10,27.9,161.10491943359375,0.699124276638031,16,0.0,0.0,1.57542003E9,,,,0,,5,2.45
Raw,28028025,11071846000000,18,,-1332670773582635576,0.1988658905029297,41.318577132187784,-4.24908582746294,9.81908993819617,2,45,0.0,16399,307431354537092,3,38.9,-259.3392028808594,0.09089195728302002,16,0.0,0.0,1.57542003E9,,,,0,,5,2.45
Raw,28028026,11071846000000,18,,-1332670773582635576,0.1988658905029297,41.318577132187784,-4.24908582746294,9.81908993819617,2,46,0.0,16399,307431341885748,11,26.7,647.8634643554688,0.17758068442344666,16,0.0,0.0,1.57542003E9,,,,0,,5,2.45
Fix,gps,46.206898,6.156590,423.861328,0.000000,3.790092,1648646629000
Raw,28029009,11072846000000,18,,-1332670773582635584,0.5098667144775391,34.48561255936511,-4.708441234411836,9.60645625181309,2,4,0.0,16399,307446345034240,31,26.7,11.075091361999512,0.7459999918937683,16,0.0,0.0,1.57542003E9,,,,0,,1,2.36
Raw,28029009,11072846000000,18,,-1332670773582635584,0.5098667144775391,34.48561255936511,-4.708441234411836,9.60645625181309,2,5,0.0,16399,307446348676575,35,26.5,-270.8354797363281,0.7414999604225159,16,0.0,0.0,1.57542003E9,,,,0,,1,2.36
Raw,28029009,11072846000000,18,,-1332670773582635584,0.5098667144775391,34.48561255936511,-4.708441234411836,9.60645625181309,2,16,0.0,16399,307446348439608,21,30.4,-634.1714477539062,0.07559104263782501,16,0.0,0.0,1.57542003E9,,,,0,,1,2.36
Raw,28029010,11072846000000,18,,-1332670773582635584,0.5098667144775391,34.48561255936511,-4.708441234411836,9.60645625181309,2,20,0.0,16399,307446347916119,53,23.5,48.91498947143555,0.9329999685287476,16,0.0,0.0,1.57542003E9,,,,0,,1,2.36
Raw,28029010,11072846000000,18,,-1332670773582635584,0.5098667144775391,34.48561255936511,-4.708441234411836,9.60645625181309,2,25,0.0,16399,307446354731324,27,27.9,537.7984619140625,0.67249995470047,16,0.0,0.0,1.57542003E9,,,,0,,1,2.36
Raw,28029010,11072846000000,18,,-1332670773582635584,0.5098667144775391,34.48561255936511,-4.708441234411836,9.60645625181309,2,26,0.0,16399,307446357387834,8,39.8,-423.4219055175781,0.022700253874063492,16,0.0,0.0,1.57542003E9,,,,0,,1,2.36
Raw,28029011,11072846000000,18,,-1332670773582635584,0.5098667144775391,34.48561255936511,-4.708441234411836,9.60645625181309,2,29,0.0,16399,307446358994088,24,28.9,298.11065673828125,0.09250329434871674,16,0.0,0.0,1.57542003E9,,,,0,,1,2.36
Raw,28029011,11072846000000,18,,-1332670773582635584,0.5098667144775391,34.48561255936511,-4.708441234411836,9.60645625181309,2,31,0.0,16399,307446357696127,21,30.4,272.0710754394531,0.06209104508161545,16,0.0,0.0,1.57542003E9,,,,0,,1,2.36
Raw,28029011,11072846000000,18,,-1332670773582635584,0.5098667144775391,34.48561255936511,-4.708441234411836,9.60645625181309,2,13,0.0,49359,59028362602079,53,23.5,-396.82061767578125,0.9404999613761902,16,0.0,0.0,1.60087501E9,,,,0,,3,1.8
Raw,28029012,11072846000000,18,,-1332670773582635584,0.5098667144775391,34.48561255936511,-4.708441234411836,9.60645625181309,2,12,0.0,49359,59028363128236,46,24.1,338.161865234375,0.8689999580383301,16,0.0,0.0,1.60143744E9,,,,0,,3,1.8
Raw,28029012,11072846000000,18,,-1332670773582635584,0.5098667144775391,34.48561255936511,-4.708441234411836,9.60645625181309,2,5,0.0,49359,59028348679192,61,22.2,-27.321674346923828,1.0115000009536743,16,0.0,0.0,1.60256256E9,,,,0,,3,1.8
Raw,28029012,11072846000000,18,,-1332670773582635584,0.5098667144775391,34.48561255936511,-4.708441234411836,9.60645625181309,2,23,0.0,49359,59028360493364,27,28.4,-531.1978149414062,0.6585000157356262,16,0.0,0.0,1.60368755E9,,,,0,,3,1.8
Raw,28029012,11072846000000,18,,-1332670773582635584,0.5098667144775391,34.48561255936511,-4.708441234411836,9.60645625181309,2,21,0.0,49359,59028351379192,27,28.0,762.7818603515625,0.6270000338554382,16,0.0,0.0,1.60424998E9,,,,0,,3,1.8
Raw,28029012,11072846000000,18,,-1332670773582635584,0.5098667144775391,34.48561255936511,-4.708441234411836,9.60645625181309,2,46,0.0,16399,307432341883644,61,22.5,647.84521484375,1.0220000743865967,16,0.0,0.0,1.56109798E9,,,,0,,5,3.44
Raw,28029013,11072846000000,18,,-1332670773582635584,0.5098667144775391,34.48561255936511,-4.708441234411836,9.60645625181309,2,45,0.0,16399,307432354538067,11,38.0,-259.6737365722656,0.02925978973507881,16,0.0,0.0,1.56109798E9,,,,0,,5,3.44
Raw,28029013,11072846000000,18,,-1332670773582635584,0.5098667144775391,34.48561255936511,-4.708441234411836,9.60645625181309,2,38,0.0,16399,307432295846824,40,25.5,161.04432678222656,0.7910000085830688,16,0.0,0.0,1.56109798E9,,,,0,,5,3.44
Raw,28029013,11072846000000,18,,-1332670773582635584,0.5098667144775391,34.48561255936511,-4.708441234411836,9.60645625181309,2,36,0.0,16399,307432353273216,46,25.2,356.25244140625,0.793999969959259,16,0.0,0.0,1.56109798E9,,,,0,,5,3.44
Raw,28029013,11072846000000,18,,-1332670773582635584,0.5098667144775391,34.48561255936511,-4.708441234411836,9.60645625181309,2,30,0.0,16399,307432355815941,19,31.7,244.71539306640625,0.04694453626871109,16,0.0,0.0,1.56109798E9,,,,0,,5,3.44
Raw,28029014,11072846000000,18,,-1332670773582635584,0.5098667144775391,34.48561255936511,-4.708441234411836,9.60645625181309,2,29,0.0,16399,307432354294343,19,31.3,-357.26318359375,0.048444539308547974,16,0.0,0.0,1.56109798E9,,,,0,,5,3.44
Raw,28029014,11072846000000,18,,-1332670773582635584,0.5098667144775391,34.48561255936511,-4.708441234411836,9.60645625181309,2,27,0.0,16399,307432343640497,70,21.6,591.107177734375,1.7710000276565552,16,0.0,0.0,1.56109798E9,,,,0,,5,3.44
Raw,28029014,11072846000000,18,,-1332670773582635584,0.5098667144775391,34.48561255936511,-4.708441234411836,9.60645625181309,2,26,0.0,16399,307432340847563,61,22.4,-616.1491088867188,1.0234999656677246,16,0.0,0.0,1.56109798E9,,,,0,,5,3.44
Raw,28029014,11072846000000,18,,-1332670773582635584,0.5098667144775391,34.48561255936511,-4.708441234411836,9.60645625181309,2,13,0.0,16399,307432301474048,21,30.5,-1.3676886558532715,0.6626139879226685,16,0.0,0.0,1.56109798E9,,,,0,,5,3.44
Raw,28029014,11072846000000,18,,-1332670773582635584,0.5098667144775391,34.48561255936511,-4.708441234411836,9.60645625181309,2,8,0.0,16399,307432299461575,24,29.5,108.1006851196289,0.09170056879520416,16,0.0,0.0,1.56109798E9,,,,0,,5,3.44
Raw,28029015,11072846000000,18,,-1332670773582635584,0.5098667144775391,34.48561255936511,-4.708441234411836,9.60645625181309,2,1,0.0,23567,307446344705373,27,28.5,380.4549255371094,0.03714597225189209,16,0.0,0.0,1.57542003E9,,,,0,,6,2.4
